,NWIS_site_id,NWIS_sitename,Drainage_area_mi2,Mean_Basin_Elev_ft,Perc_Forest,Perc_Develop,Perc_Imperv,Perc_Herbace,Perc_Slop_30,Mean_Ann_Precip_in,Ann_low_cfs,Ann_mean_cfs,Ann_hi_cfs,station_nm,dec_lat_va,dec_long_va,alt_va,alt_acy_va,huc_cd,parm_cd,begin_date,end_date,drain_sqkm,geometry
0,02378780,"D'OLIVE CREEK NEAR BRIDGEHEAD, AL",5.21,,,53.9,11.5,,,,9.99,11.0,12.0,"D'Olive Creek Near Bridgehead, AL",30.65206944,-87.8896472,,,,60.0,2017-01-04,2020-10-25,,POINT (-87.8896472 30.65206944)
1,02339495,OSELIGEE CREEK NEAR LANETT AL,86.3,,,4.49,0.64,,,,35.8,100.0,211.0,"Oseligee Creek Near Lanett, AL",32.9015159,-85.1963308,,,3130002.0,60.0,2006-07-26,2022-11-27,222.8292,POINT (-85.1963308 32.9015159)
2,02342500,"UCHEE CREEK NEAR FORT MITCHELL, AL.",322.0,,,8.68,1.42,,,,124.9,404.0,859.4,"Uchee Creek Near Fort Mitchell, AL",32.31681467,-85.014931,201.76,0.01,3130003.0,60.0,1946-10-01,2022-11-27,830.574,POINT (-85.014931 32.31681467)
3,02369800,BLACKWATER RIVER NEAR BRADLEY AL,0.0444,,,10.2,0.78,,,,48.0,145.0,341.3,"Blackwater River Near Bradley, AL",31.02767985,-86.7099567,121.87,0.1,3140104.0,60.0,1967-10-01,2022-11-27,227.5129,POINT (-86.7099567 31.02767985)
4,02377570,"STYX RIVER NEAR ELSANOR, AL.",191.0,,,4.72,0.74,,,,157.9,439.0,815.9,"Styx River Near Elsanor, AL",30.6057484,-87.5472057,,,3140106.0,60.0,1987-10-01,2022-11-27,495.4464,POINT (-87.5472057 30.6057484)
5,02378170,"WOLF CREEK BELOW FOLEY, ALA",5.16,,,44.1,13.2,,,,7.44,13.0,22.2,"Wolf Creek Below Foley, Ala",30.3882541,-87.652763,,,3140107.0,60.0,2007-12-05,2022-11-27,13.7232,POINT (-87.652763 30.3882541)
6,02361000,"CHOCTAWHATCHEE RIVER NEAR NEWTON, AL.",7.72e-05,,,0.0,0.0,,,,294.3,907.0,1654.0,"Choctawhatchee River Near Newton, AL",31.3429492,-85.6104912,138.56,0.01,3140201.0,60.0,1921-12-01,2022-11-27,1781.611,POINT (-85.6104912 31.3429492)
7,02361500,CHOCTAWHATCHEE RIVER NEAR BELLWOOD AL,,,,,,,,,651.0,1722.0,2756.0,"Choctawhatchee River Near Bellwood, AL",31.15934229,-85.7843789,,,3140201.0,60.0,1921-12-01,2022-11-27,3313.061,POINT (-85.7843789 31.15934229)
8,02362240,"LITTLE DOUBLE BRIDGES CREEK NR ENTERPRISE, AL.",,,,,,,,,14.0,34.0,63.9,"Little Double Bridges Creek Nr Enterprise, AL",31.27239318,-85.9582737,195.0,0.01,3140201.0,60.0,1985-08-07,2022-11-27,55.2006,POINT (-85.9582737 31.27239318)
9,02363000,PEA RIVER NEAR ARITON AL,498.0,,,4.11,0.42,,,,181.0,562.0,929.9,"Pea River Near Ariton, AL",31.59488716,-85.7829975,246.72,0.01,3140202.0,60.0,1938-10-01,2022-11-27,1292.513,POINT (-85.7829975 31.59488716)
10,02364500,PEA RIVER NEAR SAMSON AL,1180.0,,,5.1,0.66,,,,514.7,1477.0,2805.0,"Pea River Near Samson, AL",31.11267588,-86.0993868,97.95,0.01,3140202.0,60.0,1904-09-01,2022-11-27,3066.129,POINT (-86.0993868 31.11267588)
11,02371500,CONECUH RIVER AT BRANTLEY AL,7.72e-05,,,,0.0,,,,174.3,631.0,1359.0,"Conecuh River At Brantley, AL",31.57349458,-86.2516226,226.2,0.01,3140301.0,60.0,1937-10-01,2022-11-27,1292.785,POINT (-86.2516226 31.57349458)
12,02372422,"CONECUH RIVER BEL PT A DAM NR RIVER FALLS, AL.",0.00738,,,12.0,0.36,,,,426.1,1389.0,2501.0,"Conecuh River Bel Pt A Dam Nr River Falls, AL",31.3612799,-86.5196826,120.8,0.01,3140301.0,45.0,1999-04-29,2009-09-29,3261.999,POINT (-86.5196826 31.3612799)
13,02372430,"CONECUH RIVER AT RIVER FALLS, ALABAMA",1260.0,,,4.35,0.5,,,,625.8,1447.0,2094.0,"Conecuh River At River Falls, Alabama",31.34822474,-86.5294047,120.8,0.1,3140301.0,60.0,2012-10-01,2022-11-28,,POINT (-86.5294047 31.34822474)
14,02372250,PATSALIGA CREEK NEAR BRANTLEY AL,0.000116,,,,0.0,,,,168.8,571.0,1306.0,"Patsaliga Creek Near Brantley, AL",31.59627177,-86.40551809,220.0,0.01,3140302.0,60.0,1974-10-01,2022-11-27,1145.223,POINT (-86.40551809 31.59627177)
15,02373000,SEPULGA RIVER NEAR MCKENZIE AL,470.0,,,4.85,0.67,,,,115.7,664.0,1354.0,"Sepulga River Near Mckenzie, AL",31.4537758,-86.7869139,155.96,0.1,3140303.0,60.0,1937-10-01,2022-11-27,1213.604,POINT (-86.7869139 31.4537758)
16,02374250,"CONECUH RIVER AT STATE HWY 41 NEAR BREWTON, AL.",2650.0,,,3.94,0.47,,,,908.0,3425.0,6426.0,"Conecuh River At State Hwy 41 Near Brewton, AL",31.06712374,-87.0616352,43.1,0.1,3140304.0,60.0,1999-04-16,2022-11-27,6857.865,POINT (-87.0616352 31.06712374)
17,02374500,MURDER CREEK NEAR EVERGREEN AL,176.0,,,3.1,0.38,,,,96.9,283.0,535.6,"Murder Creek Near Evergreen, AL",31.41850006,-86.9866403,178.29,0.01,3140304.0,45.0,2000-10-01,2009-09-29,445.7151,POINT (-86.9866403 31.41850006)
18,02374700,"MURDER CREEK AT STATE HWY 41 AT BREWTON, AL.",0.000193,,,100.0,34.8,,,,233.6,653.0,1129.0,"Murder Creek At State Hwy 41 At Brewton, AL",31.10101137,-87.06885829,,,3140304.0,45.0,2000-10-01,2022-11-27,1126.634,POINT (-87.06885829 31.10101137)
19,02374745,"BURNT CORN CREEK AT STATE HWY 41 NEAR BREWTON, AL.",182.0,,,3.76,0.41,,,,84.6,269.0,444.3,"Burnt Corn Creek At State Hwy 41 Near Brewton, AL",31.1298991,-87.0871928,,,3140304.0,60.0,1999-03-10,2022-11-27,472.1139,POINT (-87.0871928 31.1298991)
20,02374950,BIG ESCAMBIA CR AT SARDINE BR NR STANLEY CROSSROAD,,,,,,,,,136.9,306.0,484.1,"Big Escambia Cr At Sardine Br Nr Stanley, Crossroad",31.12962115,-87.3705353,,,3140305.0,60.0,2000-05-24,2022-11-27,503.5059,POINT (-87.3705353 31.12962115)
21,02375000,BIG ESCAMBIA CREEK AT FLOMATON AL,332.0,,,3.92,0.66,,,,513.1,669.0,864.3,"Big Escambia Creek At Flomaton, AL",31.01073709,-87.2627518,47.76,0.01,3140305.0,60.0,1939-01-01,2022-11-27,,POINT (-87.2627518 31.01073709)
22,02397530,"COOSA RIVER AT STATE LINE, AL/GA",4360.0,,,12.2,2.63,,,,4509.0,7493.0,9993.0,"Coosa River At State Line, Al/Ga",34.20176124,-85.447458,549.5,0.1,3150105.0,10.0,1975-06-22,2022-11-28,,POINT (-85.447458 34.20176124)
23,02398300,CHATTOOGA RIVER ABOVE GAYLESVILLE AL,,,,,,,,,226.6,626.0,990.1,"Chattooga River Above Gaylesville, AL",34.29036965,-85.5091268,562.11,0.01,3150105.0,60.0,1959-01-01,2022-11-27,946.8069,POINT (-85.5091268 34.29036965)
24,02399200,LITTLE RIVER NEAR BLUE POND AL,,,,,,,,,133.7,471.0,728.9,"Little River Near Blue Pond, AL",34.2889813,-85.6805204,589.34,0.01,3150105.0,60.0,1958-10-01,2022-11-27,515.3337,POINT (-85.6805204 34.2889813)
25,02400100,TERRAPIN CREEK AT ELLISVILLE AL,0.000193,,,100.0,80.4,,,,129.2,370.0,536.1,"Terrapin Creek At Ellisville, AL",34.06509836,-85.6141287,539.07,0.01,3150105.0,10.0,2017-12-02,2022-11-27,654.7608,POINT (-85.6141287 34.06509836)
26,02400680,"BIG WILLS CREEK AT STATE HWY 35 NR FORT PAYNE, AL",55.8,,,19.8,5.89,,,,28.2,86.0,130.8,"Big Wills Creek At State Hwy 35 Nr Fort Payne, AL",34.43814386,-85.7671907,,,3150106.0,60.0,2002-10-01,2022-11-27,144.8163,POINT (-85.7671907 34.43814386)
27,02401000,BIG WILLS CREEK NEAR REECE CITY,,,,,,,,,96.8,305.0,479.2,"Big Wills Creek Near Reece, City",34.0981515,-86.0380286,570.0,0.01,3150106.0,60.0,1943-10-01,2022-11-27,473.5224,POINT (-86.0380286 34.0981515)
28,02401390,BIG CANOE CREEK AT ASHVILLE AL,141.0,,,6.46,0.78,,,,67.9,272.0,425.4,"Big Canoe Creek At Ashville, AL",33.8398211,-86.2627559,529.56,0.1,3150106.0,60.0,1965-10-01,2022-11-27,365.3478,POINT (-86.2627559 33.8398211)
29,02401895,"OHATCHEE CREEK AT OHATCHEE, AL",216.0,,,10.9,1.85,,,,258.5,397.0,558.4,"Ohatchee Creek At Ohatchee, AL",33.7803769,-85.9983035,,,3150106.0,60.0,2013-11-01,2022-11-27,,POINT (-85.9983035 33.7803769)
30,02403310,"CHOCCOLOCCO CREEK NEAR BOILING SPRING, ALABAMA",,,,,,,,,82.9,288.0,466.8,"Choccolocco Creek Near Boiling Spring, Alabama",33.60204998,-85.7852411,,,3150106.0,60.0,2002-10-01,2022-11-27,496.5012,POINT (-85.7852411 33.60204998)
31,02404400,CHOCCOLOCCO CREEK AT JACKSON SHOAL NR LINCOLN AL,480.0,,,13.1,2.6,,,,229.9,721.0,1203.0,"Choccolocco Creek At Jackson Shoal Nr Lincoln, AL",33.5484383,-86.0969163,448.5,0.01,3150106.0,60.0,1960-10-01,2022-11-27,1240.422,POINT (-86.0969163 33.5484383)
32,02405500,KELLY CREEK NEAR VINCENT AL,194.0,,,6.29,0.86,,,,100.0,340.0,514.9,"Kelly Creek Near Vincent, AL",33.44760728,-86.386924,404.09,0.01,3150106.0,10.0,2008-07-12,2022-11-27,502.3188,POINT (-86.386924 33.44760728)
33,02406500,TALLADEGA CREEK AT ALPINE AL,149.0,,,8.75,1.38,,,,87.0,242.0,416.9,"Talladega Creek At Alpine, AL",33.35955497,-86.2341414,431.34,0.01,3150106.0,60.0,1900-08-17,2022-11-27,386.1099,POINT (-86.2341414 33.35955497)
34,02406930,"SHIRTEE CREEK NEAR ODENA, ALABAMA",,,,,,,,,21.1,35.0,51.9,"Shirtee Creek Near Odena, Alabama",33.21178164,-86.273308,,,3150107.0,60.0,2010-07-14,2022-11-27,,POINT (-86.273308 33.21178164)
35,02407514,"YELLOWLEAF CREEK NEAR WESTOVER, AL",,,,,,,,,67.7,242.0,407.5,"Yellowleaf Creek Near Westover, AL",33.32066689,-86.4952592,,,3150107.0,10.0,2008-07-12,2022-11-27,367.1271,POINT (-86.4952592 33.32066689)
36,02408150,"WALNUT CREEK ABOVE CLANTON, ALA",35.7,,,18.8,4.79,,,,42.9,62.0,105.1,"Walnut Creek Above Clanton, Ala",32.89027778,-86.5791667,,,3150107.0,60.0,2014-11-19,2022-11-27,,POINT (-86.5791667 32.89027778)
37,02408540,HATCHET CREEK BELOW ROCKFORD AL,262.0,,,4.17,0.29,,,,123.4,401.0,756.6,"Hatchet Creek Below Rockford, AL",32.9167896,-86.2702507,377.0,5.0,3150107.0,60.0,1980-10-01,2022-11-27,682.4097,POINT (-86.2702507 32.9167896)
38,02411930,"TALLAPOOSA RIVER AT US 78, NEAR TALLAPOOSA, GA",272.0,1165.0,,7.84,1.27,,,,102.7,313.0,542.5,"Tallapoosa River At Us 78, Near Tallapoosa, GA",33.74138889,-85.33613889,920.0,20.0,3150108.0,60.0,1999-12-13,2022-11-27,704.7882,POINT (-85.33613889 33.74138889)
39,02411930,"TALLAPOOSA RIVER AT US 78, NEAR TALLAPOOSA, GA",272.0,1165.0,,7.84,1.27,,,,102.7,313.0,542.5,"Tallapoosa River At Us 78, Near Tallapoosa, GA",33.74138889,-85.33613889,920.0,20.0,3150108.0,60.0,1999-12-13,2022-11-27,704.7882,POINT (-85.33613889 33.74138889)
40,02412000,"TALLAPOOSA RIVER NEAR HEFLIN, AL",448.0,,,6.95,1.22,,,,164.9,639.0,1068.0,"Tallapoosa River Near Heflin, AL",33.622885,-85.5132894,830.0,0.01,3150108.0,10.0,2017-12-06,2020-11-23,1160.095,POINT (-85.5132894 33.622885)
41,02413300,LITTLE TALLAPOOSA RIVER NEAR NEWELL AL,406.0,,,12.8,3.21,,,,175.6,573.0,881.9,"Little Tallapoosa River Near Newell, AL",33.43733498,-85.399118,842.92,0.01,3150108.0,10.0,2017-12-06,2020-12-20,1050.971,POINT (-85.399118 33.43733498)
42,02414500,TALLAPOOSA RIVER AT WADLEY AL,1670.0,,,6.46,1.28,,,,785.3,2484.0,4293.0,"Tallapoosa River At Wadley, AL",33.11678684,-85.5607875,599.87,0.01,3150109.0,60.0,1923-10-01,2022-11-27,4336.82,POINT (-85.5607875 33.11678684)
43,02414715,"TALLAPOOSA RIVER NR NEW SITE, AL.(HORSESHOE BEND)",0.000154,,,0.0,0.0,,,,1005.0,3078.0,5346.0,"Tallapoosa River Nr New Site, Al.(Horseshoe, Bend)",32.97734526,-85.7396808,528.62,0.01,3150109.0,60.0,1985-11-15,2022-11-27,5330.349,POINT (-85.7396808 32.97734526)
44,02415000,HILLABEE CREEK NEAR HACKNEYVILLE AL,190.0,,,4.18,0.33,,,,91.0,302.0,578.4,"Hillabee Creek Near Hackneyville, AL",33.06539786,-85.8780186,557.92,0.01,3150109.0,60.0,1952-07-01,2022-11-27,491.3829,POINT (-85.8780186 33.06539786)
45,02418230,"SOUGAHATCHEE CREEK AT CO RD 188 NR LOACHAPOKA, AL.",,,,,,,,,41.4,91.0,165.5,"Sougahatchee Creek At Co Rd 188 Nr Loachapoka, AL",32.62680015,-85.5880076,522.0,0.2,3150110.0,60.0,1999-11-09,2022-11-27,183.9987,POINT (-85.5880076 32.62680015)
46,02418760,CHEWACLA CREEK AT CHEWACLA STATE PARK NR AUBURN,46.3,,,23.7,5.82,,,,18.6,53.0,100.3,"Chewacla Creek At Chewacla State Park Nr, Auburn",32.5481918,-85.4805044,,,3150110.0,60.0,2002-10-08,2022-11-27,120.2193,POINT (-85.4805044 32.5481918)
47,02419000,UPHAPEE CREEK NEAR TUSKEGEE AL,7.72e-05,,,100.0,14.0,,,,97.4,388.0,846.0,"Uphapee Creek Near Tuskegee, AL",32.4768045,-85.69495359,223.65,0.01,3150110.0,60.0,1939-10-01,2022-11-27,862.1604,POINT (-85.69495359 32.4768045)
48,02419890,TALLAPOOSA RIVER NEAR MONT.-MONT. WATER WORKS,3.86e-05,,,,0.0,,,,2056.0,5903.0,10100.0,"Tallapoosa River Near Mont.-Mont. Water, Works",32.43985898,-86.1955222,129.13,0.01,3150110.0,10.0,2005-07-23,2019-10-17,12066.89,POINT (-86.1955222 32.43985898)
49,02420000,"ALABAMA RIVER NEAR MONTGOMERY, AL.",,,,,,,,,10030.0,24175.0,38550.0,"Alabama River Near Montgomery, AL",32.41152597,-86.40830579,97.9,0.01,3150201.0,60.0,1927-10-01,2022-11-27,39126.16,POINT (-86.40830579 32.41152597)
50,02421000,CATOMA CREEK NEAR MONTGOMERY AL,,,,,,,,,107.3,355.0,854.1,"Catoma Creek Near Montgomery, AL",32.30736239,-86.2994126,151.02,0.01,3150201.0,60.0,1952-07-01,2022-11-27,759.1977,POINT (-86.2994126 32.30736239)
51,02422500,MULBERRY CREEK AT JONES AL,204.0,,,4.18,0.57,,,,109.1,298.0,577.2,"Mulberry Creek At Jones, AL",32.5829103,-86.9035991,165.23,0.01,3150201.0,60.0,1938-10-01,2022-11-27,527.5476,POINT (-86.9035991 32.5829103)
52,02423130,"CAHABA RIVER AT TRUSSVILLE, AL.",20.0,,,20.3,4.78,,,,5.6,34.0,65.0,"Cahaba River At Trussville, AL",33.62232504,-86.599431,673.47,0.01,3150202.0,10.0,1988-09-08,2022-10-04,51.7203,POINT (-86.599431 33.62232504)
53,02423160,CAHABA RIVER NEAR WHITES CHAPEL AL,50.9,,,24.9,6.49,,,,61.5,105.0,152.7,"Cahaba River Near Whites Chapel, AL",33.60371416,-86.5491517,,,3150202.0,10.0,2011-08-08,2022-11-27,,POINT (-86.5491517 33.60371416)
54,02423380,CAHABA RIVER NEAR MOUNTAIN BROOK AL,140.0,,,21.9,5.27,,,,69.5,251.0,419.0,"Cahaba River Near Mountain Brook, AL",33.4817724,-86.7127653,443.99,0.01,3150202.0,10.0,1987-08-07,2022-11-27,363.1473,POINT (-86.7127653 33.4817724)
55,02423397,"LITTLE CAHABA RIVER BELOW LEEDS, AL.",16.6,,,46.0,13.9,,,,20.9,35.0,49.5,"Little Cahaba River Below Leeds, AL",33.53454886,-86.5624847,595.63,0.01,3150202.0,10.0,1995-06-16,2022-11-27,43.94812,POINT (-86.5624847 33.53454886)
56,02423400,"LITTLE CAHABA RIVER NR JEFFERSON PARK, AL.",,,,,,,,,23.8,48.0,81.3,"Little Cahaba River Nr Jefferson Park, AL",33.4998273,-86.6141521,556.57,0.01,3150202.0,60.0,1986-07-23,2022-11-27,62.6193,POINT (-86.6141521 33.4998273)
57,02423414,LITTLE CAHABA RIVER AT CAH BEA RD NR CAHABA HTS AL,47.2,,,33.6,9.28,,,,47.7,96.0,145.9,"Little Cahaba River At Cah Bea Rd Nr Cahaba Hts, AL",33.43982948,-86.6988758,,,3150202.0,60.0,2003-08-01,2022-11-27,122.4909,POINT (-86.6988758 33.43982948)
58,02423425,CAHABA RIVER NEAR CAHABA HEIGHTS AL,201.0,,,26.8,6.86,,,,61.1,294.0,496.2,"Cahaba River Near Cahaba Heights, AL",33.4156637,-86.7397099,405.17,0.18,3150202.0,60.0,1975-08-01,2022-11-27,519.8841,POINT (-86.7397099 33.4156637)
59,02423496,"CAHABA RIVER NEAR HOOVER, AL",226.0,,,31.1,7.92,,,,82.7,368.0,597.8,"Cahaba River Near Hoover, AL",33.3692767,-86.7841551,379.7,0.01,3150202.0,10.0,1988-11-23,2022-11-27,585.7911,POINT (-86.7841551 33.3692767)
60,02423500,CAHABA RIVER NEAR ACTON AL,229.0,,,31.7,8.21,,,,102.7,412.0,646.9,"Cahaba River Near Acton, AL",33.36344373,-86.8130446,375.0,0.01,3150202.0,60.0,1938-10-01,2022-11-27,593.7696,POINT (-86.8130446 33.36344373)
61,02423555,CAHABA RIVER NEAR HELENA AL,334.0,,,36.7,10.1,,,,150.5,581.0,903.8,"Cahaba River Near Helena, AL",33.28455786,-86.8824901,357.0,0.01,3150202.0,60.0,1995-10-01,2022-11-27,866.304,POINT (-86.8824901 33.28455786)
62,02423571,SHADES CREEK AT ELDER ST NEAR SPRINGDALE AL,,,,,,,,,17.6,25.0,29.7,"Shades Creek At Elder St Near Springdale, AL",33.52093809,-86.7169325,693.0,0.01,3150202.0,45.0,2017-10-03,2022-11-27,,POINT (-86.7169325 33.52093809)
63,02423586,"SHADES CREEK NR HOMEWOOD, ALA",27.0,,,67.0,20.5,,,,45.9,59.0,80.6,"Shades Creek Nr Homewood, Ala",33.4487185,-86.8136007,,,3150202.0,60.0,2001-02-23,2022-11-27,,POINT (-86.8136007 33.4487185)
64,02423630,SHADES CREEK NEAR GREENWOOD AL,0.0417,,,28.5,3.05,,,,41.5,139.0,210.4,"Shades Creek Near Greenwood, AL",33.3262234,-86.9497141,478.52,0.01,3150202.0,60.0,1964-10-01,2022-11-27,185.9544,POINT (-86.9497141 33.3262234)
65,02423647,CAHABA RIVER NEAR WEST BLOCTON AL,,,,,,,,,514.4,1228.0,1790.0,,,,,,,,,,,
66,02424000,CAHABA RIVER AT CENTREVILLE AL,,,,,,,,,505.3,1636.0,2767.0,"Cahaba River At Centreville, AL",32.9451238,-87.1391623,180.81,0.01,3150202.0,60.0,1901-08-01,2022-11-27,2656.627,POINT (-87.1391623 32.9451238)
67,02424590,"CAHABA RIVER NEAR SUTTLE, AL.",1480.0,,,15.3,3.7,,,,742.1,2224.0,3574.0,,,,,,,,,,,
68,02425000,CAHABA RIVER NEAR MARION JUNCTION AL,7.72e-05,,,0.0,0.0,,,,894.6,2810.0,4866.0,"Cahaba River Near Marion Junction, AL",32.44402456,-87.1802715,86.72,0.01,3150202.0,60.0,1938-10-01,2022-11-27,4572.621,POINT (-87.1802715 32.44402456)
69,02427250,"PINE BARREN CREEK NEAR SNOW HILL, AL.",261.0,,,2.57,0.16,,,,109.2,337.0,521.8,"Pine Barren Creek Near Snow Hill, AL",31.99625809,-87.0683187,126.6,0.01,3150203.0,60.0,1989-10-01,2022-11-27,675.2439,POINT (-87.0683187 31.99625809)
70,02428400,ALABAMA RIVER AT CLAIBORNE L&D NEAR MONROEVILLE,7.72e-05,,,50.0,0.0,,,,9597.0,30604.0,48810.0,"Alabama River At Claiborne L&D Near, Monroeville",31.61515849,-87.550548,0.0,0.1,3150204.0,60.0,1975-10-01,2022-11-27,,POINT (-87.550548 31.61515849)
71,02438000,BUTTAHATCHEE RIVER BELOW HAMILTON AL,0.052,,,23.6,4.84,,,,244.4,555.0,1040.0,"Buttahatchee River Below Hamilton, AL",34.10621294,-87.9894765,360.5,0.1,3160103.0,60.0,1951-01-01,2022-11-27,724.2138,POINT (-87.9894765 34.10621294)
72,02444160,"TOMBIGBEE RIVER AT BEVILL L&D NR PICKENSVILLE, AL",5750.0,,,5.91,1.15,,,,3454.0,8765.0,18840.0,"Tombigbee River At Bevill L&D Nr Pickensville, AL",33.21067874,-88.2886454,0.0,0.01,3160106.0,60.0,1980-10-01,2022-11-27,14902.8,POINT (-88.2886454 33.21067874)
73,02447025,"TOMBIGBEE R AT HEFLIN L&D NR GAINESVILLE, AL",0.000116,,,,0.0,,,,4026.0,11378.0,24800.0,"Tombigbee R At Heflin L&D Nr Gainesville, AL",32.8481856,-88.1561363,142.44,0.18,3160106.0,60.0,1978-03-17,2022-11-27,18672.03,POINT (-88.1561363 32.8481856)
74,02446500,"SIPSEY RIVER NR ELROD, AL",7.72e-05,,,50.0,0.0,,,,328.3,885.0,1583.0,"Sipsey River Nr Elrod, AL",33.25706249,-87.7764022,197.81,0.01,3160107.0,60.0,1928-09-01,2022-11-27,1368.045,POINT (-87.7764022 33.25706249)
75,02448500,"NOXUBEE RIVER NR GEIGER, AL",3.86e-05,,,,9.0,,,,455.7,1648.0,3909.0,"Noxubee River Nr Geiger, AL",32.9326287,-88.2978103,86.08,0.01,3160108.0,60.0,1939-03-01,2022-11-27,2842.617,POINT (-88.2978103 32.9326287)
76,02448500,"NOXUBEE RIVER NR GEIGER, AL",3.86e-05,,,,9.0,,,,455.7,1648.0,3909.0,"Noxubee River Nr Geiger, AL",32.9326287,-88.2978103,86.08,0.01,3160108.0,60.0,1939-03-01,2022-11-27,2842.617,POINT (-88.2978103 32.9326287)
77,02448900,"BODKA CREEK NEAR GEIGER, AL.",159.0,,,3.99,0.38,,,,49.5,210.0,426.5,"Bodka Creek Near Geiger, AL",32.80707585,-88.3119761,104.78,0.01,3160108.0,60.0,1990-10-01,2022-11-22,411.8175,POINT (-88.3119761 32.80707585)
78,02449838,"DUCK RIVER ABOVE HWY 278 NEAR BERLIN, AL",37.1,,,7.24,1.52,,,,45.4,46.0,46.2,"Duck River Above Hwy 278 Near Berlin, AL",34.1725,-86.69388889,,,3160109.0,60.0,2015-10-15,2022-11-27,,POINT (-86.69388889 34.1725)
79,02449882,"BLUE SPRINGS CREEK NEAR BLOUNTSVILLE, AL.",11.9,,,10.8,2.56,,,,4.51,18.0,29.4,"Blue Springs Creek Near Blountsville, AL",34.0798198,-86.60777,650.0,10.0,3160109.0,60.0,1992-10-01,2022-11-27,30.3696,POINT (-86.60777 34.0798198)
80,02450000,"MULBERRY FORK NEAR GARDEN CITY, AL.",358.0,,,10.8,2.56,,,,188.9,698.0,1086.0,"Mulberry Fork Near Garden City, AL",34.01204356,-86.73666329,380.54,0.01,3160109.0,60.0,1928-10-01,2022-11-27,930.0483,POINT (-86.73666329 34.01204356)
81,02450180,"MULBERRY FORK NEAR ARKADELPHIA, AL.",,,,,,,,,242.8,899.0,1426.0,"Mulberry Fork Near Arkadelphia, AL",33.87204689,-86.9222211,270.23,0.01,3160109.0,60.0,1976-10-01,2022-11-27,1264.127,POINT (-86.9222211 33.87204689)
82,02453000,BLACKWATER CREEK NEAR MANCHESTER AL,182.0,,,5.41,0.66,,,,107.5,358.0,525.1,"Blackwater Creek Near Manchester, AL",33.90843985,-87.2569514,401.04,0.01,3160109.0,60.0,1938-10-01,2022-11-27,471.1806,POINT (-87.2569514 33.90843985)
83,02453500,MULBERRY FORK AT CORDOVA AL,7.72e-05,,,,0.0,,,,2790.0,3331.0,4449.0,"Mulberry Fork At Cordova, AL",33.75760677,-87.1702791,243.6,0.01,3160109.0,10.0,2012-08-23,2022-11-25,,POINT (-87.1702791 33.75760677)
84,02454055,"LOST CREEK ABOVE PARRISH, AL.",3.95,,,2.4,0.0957,,,,79.2,276.0,461.2,"Lost Creek Above Parrish, AL",33.7417756,-87.3269483,,,3160109.0,60.0,1992-10-01,2022-01-30,370.9807,POINT (-87.3269483 33.7417756)
85,02450250,SIPSEY FORK NEAR GRAYSON AL,89.4,,,1.35,0.0792,,,,58.2,170.0,272.1,"Sipsey Fork Near Grayson, AL",34.28537757,-87.3989084,540.0,0.01,3160110.0,10.0,2012-04-13,2022-11-27,231.8252,POINT (-87.3989084 34.28537757)
86,02450825,"CLEAR C AT NEW HOPE CHURCH NR POPLAR SPRINGS, AL.",102.0,,,7.01,1.34,,,,75.8,206.0,334.2,"Clear C At New Hope Church Nr Poplar Springs, AL",34.08121506,-87.422793,,,3160110.0,60.0,1980-10-01,2022-11-27,263.4417,POINT (-87.422793 34.08121506)
87,02455000,"LOCUST FORK NEAR CLEVELAND, AL.",303.0,,,9.01,2.01,,,,164.7,540.0,859.8,"Locust Fork Near Cleveland, AL",34.02454235,-86.5741573,536.94,0.01,3160111.0,60.0,1936-12-01,2022-11-27,784.944,POINT (-86.5741573 34.02454235)
88,02455185,BLACKBURN FORK LITTLE WARRIOR R NR HOLLY SPRINGS,36.2,,,7.12,0.89,,,,44.1,68.0,101.4,"Blackburn Fork Little Warrior R Nr Holly, Springs",33.8606544,-86.4458178,,,3160111.0,60.0,1998-01-31,2022-11-27,94.36591,POINT (-86.4458178 33.8606544)
89,02455980,TURKEY CREEK AT SEWAGE PLANT NEAR PINSON AL,27.2,,,32.2,6.37,,,,14.9,52.0,81.1,"Turkey Creek At Sewage Plant Near Pinson, AL",33.71121273,-86.6961013,501.69,0.01,3160111.0,10.0,1989-01-05,2022-11-27,71.4042,POINT (-86.6961013 33.71121273)
90,02456000,TURKEY CREEK AT MORRIS AL,7.72e-05,,,0.0,0.0,,,,85.3,155.0,214.3,"Turkey Creek At Morris, AL",33.74037995,-86.8124936,345.18,0.01,3160111.0,60.0,1944-01-01,2022-11-27,209.3562,POINT (-86.8124936 33.74037995)
91,02456500,"LOCUST FORK AT SAYRE, AL.",888.0,,,9.0,1.71,,,,417.5,1539.0,2506.0,"Locust Fork At Sayre, AL",33.7098268,-86.9833305,258.64,0.01,3160111.0,60.0,1928-10-01,2022-11-27,2299.517,POINT (-86.9833305 33.7098268)
92,02457595,"FIVEMILE CREEK NEAR REPUBLIC, AL",51.5,,,59.7,16.3,,,,29.9,96.0,142.5,"Fivemile Creek Near Republic, AL",33.5970492,-86.8680483,,,3160111.0,10.0,1988-09-28,2022-11-27,133.1694,POINT (-86.8680483 33.5970492)
93,02457704,"FIVE MILE CREEK NR SAYRE, ALA",96.5,,,43.2,11.2,,,,274.3,275.0,275.1,"Five Mile Creek Nr Sayre, Ala",33.66343834,-86.9736073,,,3160111.0,60.0,2019-04-10,2022-11-27,,POINT (-86.9736073 33.66343834)
94,02458148,"VILLAGE CREEK AT 86TH ST NORTH AT ROEBUCK, AL.",4.0,,,81.5,18.6,,,,6.12,9.0,13.8,"Village Creek At 86Th St North At Roebuck, AL",33.5770483,-86.7188778,,,3160111.0,10.0,2000-04-26,2022-11-27,,POINT (-86.7188778 33.5770483)
95,02458190,TRIB TO VILLAGE CREEK AT 50th ST IN BIRMINGHAM,3.35,,,88.3,30.4,,,,5.47,8.0,9.09,"Trib To Village Creek At 50Th St In, Birmingham",33.54843779,-86.7613783,599.32,0.21,3160111.0,60.0,2012-02-15,2022-11-27,,POINT (-86.7613783 33.54843779)
96,02458300,"VILLAGE CREEK AT 24TH ST. AT BIRMINGHAM, AL",25.8,,,92.1,36.2,,,,40.6,56.0,76.9,"Village Creek At 24Th St. At Birmingham, AL",33.54260504,-86.8174907,543.38,0.1,3160111.0,60.0,1988-06-01,2021-10-11,66.8169,POINT (-86.8174907 33.54260504)
97,02458450,"VILLAGE CREEK AT AVENUE W AT ENSLEY, AL",33.1,,,92.3,38.5,,,,31.9,80.0,120.7,"Village Creek At Avenue W At Ensley, AL",33.5176059,-86.8791584,505.16,0.01,3160111.0,10.0,1991-05-14,2022-11-27,85.9473,POINT (-86.8791584 33.5176059)
98,02458502,"VILLAGE CREEK NEAR PRATT CITY, ALABAMA",,,,,,,,,63.5,94.0,131.7,"Village Creek Near Pratt City, Alabama",33.5239948,-86.8911032,500.22,0.2,3160111.0,10.0,2014-07-26,2022-11-27,,POINT (-86.8911032 33.5239948)
99,02458600,"VILLAGE CREEK NEAR DOCENA, ALABAMA",,,,,,,,,68.4,167.0,232.2,"Village Creek Near Docena, Alabama",33.5481615,-86.9258266,,,3160111.0,60.0,1996-06-21,2022-11-27,135.1854,POINT (-86.9258266 33.5481615)
100,02460500,"VILLAGE CREEK NEAR ADAMSVILLE, AL.",83.3,,,60.7,21.6,,,,298.7,299.0,298.7,"Village Creek Near Adamsville, AL",33.6056616,-87.0069405,340.0,0.01,3160111.0,60.0,2019-11-29,2022-11-27,,POINT (-87.0069405 33.6056616)
101,02461192,"VALLEY CREEK AT AVE W NEAR ENSLEY, AL",,,,,,,,,33.2,39.0,44.2,"Valley Creek At Ave W Near Ensley, AL",33.4926111,-86.8721722,522.0,4.3,3160112.0,60.0,2017-01-05,2022-11-27,,POINT (-86.8721722 33.4926111)
102,02461500,"VALLEY CREEK NEAR BESSEMER, AL",53.6,,,88.6,35.0,,,,66.4,125.0,184.7,"Valley Creek Near Bessemer, AL",33.4192762,-86.9827711,438.64,0.01,3160112.0,60.0,1975-05-14,2022-11-27,138.8301,POINT (-86.9827711 33.4192762)
103,02462000,VALLEY CREEK NEAR OAK GROVE AL,148.0,,,47.6,16.5,,,,148.6,317.0,600.7,"Valley Creek Near Oak Grove, AL",33.44733226,-87.1222186,294.99,0.01,3160112.0,60.0,1953-10-01,2022-11-27,384.1299,POINT (-87.1222186 33.44733226)
104,02462500,BLACK WARRIOR R AT BANKHEAD L&D NEAR BESSEMER AL,0.000116,,,0.0,0.0,,,,1745.0,6593.0,11000.0,,,,,,,,,,,
105,02462951,BLACK WARRIOR RIVER AT HOLT L&D NEAR HOLT AL.,,,,,,,,,1944.0,7440.0,13180.0,,,,,,,,,,,
106,02464000,NORTH RIVER NEAR SAMANTHA AL,223.0,,,3.45,0.29,,,,87.1,388.0,781.7,"North River Near Samantha, AL",33.47928058,-87.5972297,232.39,0.01,3160112.0,60.0,1938-12-01,2022-11-27,578.9448,POINT (-87.5972297 33.47928058)
107,02465000,BLACK WARRIOR RIVER AT NORTHPORT AL,4830.0,,,8.36,2.04,,,,2315.0,8437.0,13920.0,"Black Warrior River At Northport, AL",33.20928528,-87.5900074,0.0,0.01,3160112.0,60.0,1895-01-01,2022-11-27,12500.05,POINT (-87.5900074 33.20928528)
108,02465292,"CRIBBS MILL CREEK AT WW PLANT AT TUSCALOOSA, AL.",,,,,,,,,10.7,22.0,30.0,"Cribbs Mill Creek At Ww Plant At Tuscaloosa, AL",33.17484164,-87.5647288,139.94,0.19,3160113.0,60.0,2002-07-25,2022-11-27,26.37,POINT (-87.5647288 33.17484164)
109,02465493,ELLIOTTS CREEK AT MOUNDVILLE AL,7.72e-05,,,,0.0,,,,17.8,40.0,71.8,"Elliotts Creek At Moundville, AL",32.99734636,-87.6222295,147.92,0.01,3160113.0,60.0,1976-10-01,2022-11-27,83.4174,POINT (-87.6222295 32.99734636)
110,02466030,"BLACK WARRIOR RIVER AT SELDEN L & D NEAR EUTAW, AL",0.000116,,,100.0,45.7,,,,2878.0,9517.0,17760.0,"Black Warrior River At Selden L & D Near Eutaw, AL",32.77790835,-87.8405687,0.0,0.01,3160113.0,60.0,1976-10-01,2022-11-27,15053.03,POINT (-87.8405687 32.77790835)
111,02467000,"TOMBIGBEE R AT DEMOPOLIS L&D NEAR COATOPA, AL.",0.000193,,,0.0,0.0,,,,8370.0,25610.0,47930.0,"Tombigbee R At Demopolis L&D Near Coatopa, AL",32.51958077,-87.8783476,0.0,0.01,3160201.0,60.0,1928-08-01,2022-11-27,39877.23,POINT (-87.8783476 32.51958077)
112,02467500,SUCARNOOCHEE RIVER AT LIVINGSTON AL,0.000116,,,0.0,4.67,,,,252.7,878.0,1769.0,"Sucarnoochee River At Livingston, AL",32.57374714,-88.1933589,90.04,0.01,3160202.0,60.0,1938-10-01,2022-11-27,1574.118,POINT (-88.1933589 32.57374714)
113,02469761,"TOMBIGBEE R AT COFFEEVILLE L&D NR COFFEEVILLE, AL.",7.72e-05,,,0.0,0.0,,,,9520.0,29920.0,59120.0,"Tombigbee R At Coffeeville L&D Nr Coffeeville, AL",31.75849066,-88.1291763,0.0,0.1,3160203.0,60.0,1960-10-01,2022-11-15,47724.59,POINT (-88.1291763 31.75849066)
114,02469800,SATILPA CREEK NEAR COFFEEVILLE AL,7.72e-05,,,100.0,0.5,,,,50.5,241.0,436.9,"Satilpa Creek Near Coffeeville, AL",31.7443247,-88.0225066,39.8,0.01,3160203.0,60.0,1956-10-01,2022-11-27,422.6814,POINT (-88.0225066 31.7443247)
115,02470072,"BASSETT CREEK AT US HIGHWAY 43 NR THOMASVILLE, AL.",10.6,,,15.9,3.32,,,,2.98,15.0,30.0,"Bassett Creek At Us Highway 43 Nr Thomasville, AL",31.86404249,-87.7472247,292.0,1.0,3160203.0,60.0,1995-10-01,2022-11-27,27.567,POINT (-87.7472247 31.86404249)
116,02471001,CHICKASAW CREEK NEAR KUSHLA AL,,,,,,,,,86.9,281.0,503.6,"Chickasaw Creek Near Kushla, AL",30.80296466,-88.1433355,3.85,0.01,3160204.0,60.0,1951-10-01,2022-11-27,324.1945,POINT (-88.1433355 30.80296466)
117,02378300,"MAGNOLIA RIVER AT US 98 NEAR FOLEY, ALABAMA",16.7,,,16.9,3.74,,,,17.0,41.0,101.7,"Magnolia River At Us 98 Near Foley, Alabama",30.40658669,-87.7369323,,,3160205.0,45.0,2006-09-30,2009-09-29,44.2683,POINT (-87.7369323 30.40658669)
118,02378500,FISH RIVER NEAR SILVER HILL AL,56.2,,,14.6,3.3,,,,55.2,117.0,191.1,"Fish River Near Silver Hill, AL",30.54547146,-87.79860149,20.0,0.1,3160205.0,45.0,2000-10-01,2022-11-27,145.098,POINT (-87.79860149 30.54547146)
119,02471078,"FOWL RIVER AT HALF-MILE RD NEAR LAURENDINE, AL.",15.7,,,20.2,3.75,,,,20.1,39.0,67.6,"Fowl River At Half-Mile Rd Near Laurendine, AL",30.50075106,-88.1813906,16.96,0.01,3160205.0,60.0,1995-03-09,2022-11-27,44.5113,POINT (-88.1813906 30.50075106)
120,02479500,"ESCATAWPA RIVER NEAR WILMER, AL",,,,,,,,,792.2,900.0,1048.0,,,,,,,,,,,
121,02479500,"ESCATAWPA RIVER NEAR WILMER, AL",,,,,,,,,792.2,900.0,1048.0,,,,,,,,,,,
122,02479945,"BIG CREEK AT COUNTY RD 63 NEAR WILMER, AL.",31.6,,,2.98,0.24,,,,19.8,61.0,96.1,"Big Creek At County Rd 63 Near Wilmer, AL",30.85601968,-88.3338988,,,3170008.0,60.0,1990-06-22,2022-11-27,81.999,POINT (-88.3338988 30.85601968)
123,02479980,"CROOKED CREEK NEAR FAIRVIEW, AL.",,,,,,,,,9.96,17.0,28.6,"Crooked Creek Near Fairview, AL",30.78018805,-88.3188979,115.0,1.0,3170008.0,60.0,1990-06-22,2022-11-27,21.5352,POINT (-88.3188979 30.78018805)
124,02480002,"HAMILTON CREEK AT SNOW ROAD NEAR SEMMES, AL.",7.36,,,25.9,4.88,,,,12.7,21.0,37.5,"Hamilton Creek At Snow Road Near Semmes, AL",30.7260225,-88.2763955,115.0,1.0,3170008.0,60.0,1990-06-21,2022-11-27,21.213,POINT (-88.2763955 30.7260225)
125,02480020,BIG CREEK NEAR SEVEN HILLS AL,,,,,,,,,355.5,356.0,355.5,,,,,,,,,,,
126,02480020,BIG CREEK NEAR SEVEN HILLS AL,142.0,,,9.76,1.53,,,,355.5,356.0,355.5,,,,,,,,,,,
127,03572110,"CROW CREEK AT BASS, AL",131.0,,,1.98,0.23,,,,155.5,281.0,432.8,"Crow Creek At Bass, AL",34.93424968,-85.9174783,598.76,0.01,6030001.0,60.0,1975-05-22,2022-11-27,338.436,POINT (-85.9174783 34.93424968)
128,03572110,"CROW CREEK AT BASS, AL",131.0,,,1.98,0.23,,,,155.5,281.0,432.8,"Crow Creek At Bass, AL",34.93424968,-85.9174783,598.76,0.01,6030001.0,60.0,1975-05-22,2022-11-27,338.436,POINT (-85.9174783 34.93424968)
129,03572690,"SOUTH SAUTY CREEK NEAR RAINSVILLE, ALA",,,,,,,,,68.4,105.0,143.2,"South Sauty Creek Near Rainsville, Ala",34.4986981,-85.9296966,1100.0,20.0,6030001.0,60.0,2011-06-01,2022-11-27,,POINT (-85.9296966 34.4986981)
130,03572690,"SOUTH SAUTY CREEK NEAR RAINSVILLE, ALA",44.1,,,9.77,2.28,,,,68.4,105.0,143.2,"South Sauty Creek Near Rainsville, Ala",34.4986981,-85.9296966,1100.0,20.0,6030001.0,60.0,2011-06-01,2022-11-27,,POINT (-85.9296966 34.4986981)
131,03572900,TOWN CREEK NEAR GERALDINE AL,,,,,,,,,166.9,316.0,435.1,"Town Creek Near Geraldine, AL",34.3784235,-85.9902524,1002.52,0.01,6030001.0,60.0,2016-12-01,2022-11-27,366.5745,POINT (-85.9902524 34.3784235)
132,03572900,TOWN CREEK NEAR GERALDINE AL,,,,,,,,,166.9,316.0,435.1,"Town Creek Near Geraldine, AL",34.3784235,-85.9902524,1002.52,0.01,6030001.0,60.0,2016-12-01,2022-11-27,366.5745,POINT (-85.9902524 34.3784235)
133,03574100,ESTILL FORK AT ESTILLFORK AL,44.9,,,0.85,0.0472,,,,103.2,129.0,151.2,"Estill Fork At Estillfork, AL",34.91,-86.1683333,,,6030002.0,60.0,2015-11-11,2022-11-27,,POINT (-86.1683333 34.91)
134,03574100,ESTILL FORK AT ESTILLFORK AL,,,,,,,,,103.2,129.0,151.2,"Estill Fork At Estillfork, AL",34.91,-86.1683333,,,6030002.0,60.0,2015-11-11,2022-11-27,,POINT (-86.1683333 34.91)
135,03574500,PAINT ROCK RIVER NEAR WOODVILLE AL,321.0,,,1.52,0.17,,,,179.8,698.0,1095.0,"Paint Rock River Near Woodville, AL",34.6242547,-86.3063737,570.95,0.01,6030002.0,60.0,1936-01-01,2022-11-27,813.8025,POINT (-86.3063737 34.6242547)
136,03574500,PAINT ROCK RIVER NEAR WOODVILLE AL,,,,,,,,,179.8,698.0,1095.0,"Paint Rock River Near Woodville, AL",34.6242547,-86.3063737,570.95,0.01,6030002.0,60.0,1936-01-01,2022-11-27,813.8025,POINT (-86.3063737 34.6242547)
137,03574768,"FLINT R AT OSCAR PATTERSON ROAD NR HAZEL GREEN, AL",132.0,,,9.23,1.43,,,,275.2,324.0,371.7,"Flint R At Oscar Patterson Road Nr Hazel Green, AL",34.88064458,-86.48054629,,,6030002.0,60.0,2017-11-08,2022-11-02,,POINT (-86.48054629 34.88064458)
138,03574768,"FLINT R AT OSCAR PATTERSON ROAD NR HAZEL GREEN, AL",,,,,,,,,275.2,324.0,371.7,"Flint R At Oscar Patterson Road Nr Hazel Green, AL",34.88064458,-86.48054629,,,6030002.0,60.0,2017-11-08,2022-11-02,,POINT (-86.48054629 34.88064458)
139,03574975,"BRIER FORK AT MOORE'S MILL RD NR MERIDIANVILLE, AL",7.72e-05,,,,6.0,,,,204.0,250.0,280.4,"Brier Fork At Moore'S Mill Rd Nr Meridianville, AL",34.8450896,-86.517769,,,6030002.0,60.0,2018-09-12,2022-11-27,,POINT (-86.517769 34.8450896)
140,03574975,"BRIER FORK AT MOORE'S MILL RD NR MERIDIANVILLE, AL",7.72e-05,,,,6.0,,,,204.0,250.0,280.4,"Brier Fork At Moore'S Mill Rd Nr Meridianville, AL",34.8450896,-86.517769,,,6030002.0,60.0,2018-09-12,2022-11-27,,POINT (-86.517769 34.8450896)
141,03575100,"FLINT RIVER AT BROWNSBORO, AL.",373.0,,,11.6,2.03,,,,213.7,673.0,1008.0,"Flint River At Brownsboro, AL",34.7492568,-86.4466551,615.92,0.01,6030002.0,60.0,1998-10-01,2022-11-27,968.5789,POINT (-86.4466551 34.7492568)
142,03575100,"FLINT RIVER AT BROWNSBORO, AL.",,,,,,,,,213.7,673.0,1008.0,"Flint River At Brownsboro, AL",34.7492568,-86.4466551,615.92,0.01,6030002.0,60.0,1998-10-01,2022-11-27,968.5789,POINT (-86.4466551 34.7492568)
143,03575830,INDIAN CREEK NEAR MADISON AL,48.4,,,40.1,9.96,,,,18.6,72.0,121.5,"Indian Creek Near Madison, AL",34.6973134,-86.6999967,601.32,0.01,6030002.0,45.0,1970-10-01,2022-11-27,126.7238,POINT (-86.6999967 34.6973134)
144,03575830,INDIAN CREEK NEAR MADISON AL,48.4,,,40.1,9.96,,,,18.6,72.0,121.5,"Indian Creek Near Madison, AL",34.6973134,-86.6999967,601.32,0.01,6030002.0,45.0,1970-10-01,2022-11-27,126.7238,POINT (-86.6999967 34.6973134)
145,03576148,COTACO CREEK AT FLORETTE AL,136.0,,,7.29,1.41,,,,153.2,284.0,396.3,,,,,,,,,,,
146,03576250,LIMESTONE CREEK NEAR ATHENS AL,121.0,,,16.3,3.17,,,,64.1,217.0,329.9,"Limestone Creek Near Athens, AL",34.751757,-86.8233348,626.46,0.1,6030002.0,60.0,1939-10-01,2022-11-27,313.5159,POINT (-86.8233348 34.751757)
147,03576500,FLINT CREEK NEAR FALKVILLE AL,86.7,,,7.84,1.46,,,,119.0,174.0,259.1,"Flint Creek Near Falkville, AL",34.37315189,-86.933617,572.59,0.01,6030002.0,60.0,1952-08-01,2022-11-27,224.2539,POINT (-86.933617 34.37315189)
148,03577225,"SWAN CREEK BELOW ATHENS, ALA",41.1,,,26.9,7.25,,,,56.6,94.0,147.3,"Swan Creek Below Athens, Ala",34.7639782,-86.9463954,,,6030002.0,60.0,2009-06-25,2022-11-27,,POINT (-86.9463954 34.7639782)
149,03586500,BIG NANCE CREEK AT COURTLAND AL,163.0,,,7.67,1.32,,,,72.0,301.0,531.9,"Big Nance Creek At Courtland, AL",34.67009046,-87.3172429,537.6,0.01,6030005.0,60.0,1935-09-01,2022-11-27,423.4077,POINT (-87.3172429 34.67009046)
150,03590000,CYPRESS CREEK NEAR FLORENCE AL,,,,,,,,,221.8,437.0,586.9,"Cypress Creek Near Florence, AL",34.8078655,-87.7005847,423.78,0.01,6030005.0,60.0,1934-06-01,2022-11-27,,POINT (-87.7005847 34.8078655)
151,03592000,"BEAR CREEK AT REDBAY, AL",261.0,,,6.81,1.25,,,,300.6,605.0,947.6,"Bear Creek At Redbay, AL",34.4439866,-88.1155963,506.57,10.0,6030006.0,60.0,1913-10-01,1981-09-29,678.1667,POINT (-88.1155963 34.4439866)
152,03592500,"BEAR CREEK AT BISHOP,AL.",0.000193,,,0.0,0.0,,,,849.8,1382.0,2099.0,"Bear Creek At, Bishop,Al",34.65592635,-88.1225408,419.91,0.01,6030006.0,60.0,1926-10-01,2022-11-27,1725.432,POINT (-88.1225408 34.65592635)
153,07263878,"Salt Bayou Ditch nr Humphrey, AR",130.0,207.0,,6.02,0.38,,,50.3,468.5,542.0,615.2,"Salt Bayou Ditch Nr Humphrey, AR",34.3947222,-91.7202778,0.0,0.1,,60.0,2018-11-20,2022-11-27,,POINT (-91.7202778 34.3947222)
154,07032000,"MISSISSIPPI RIVER AT MEMPHIS, TN",,,,,,,,,333200.0,581540.0,964400.0,"Mississippi River At Memphis, TN",35.12314616,-90.077592,184.0,21.0,8010100.0,60.0,1933-01-01,2022-11-27,,POINT (-90.077592 35.12314616)
155,07032000,"MISSISSIPPI RIVER AT MEMPHIS, TN",,,,,,,,,333200.0,581540.0,964400.0,"Mississippi River At Memphis, TN",35.12314616,-90.077592,184.0,21.0,8010100.0,60.0,1933-01-01,2022-11-27,,POINT (-90.077592 35.12314616)
156,07032000,"MISSISSIPPI RIVER AT MEMPHIS, TN",,,,,,,,,333200.0,581540.0,964400.0,"Mississippi River At Memphis, TN",35.12314616,-90.077592,184.0,21.0,8010100.0,60.0,1933-01-01,2022-11-27,,POINT (-90.077592 35.12314616)
157,07047855,"Whiteman's Crk at Ind Dr at Jonesboro, AR",9.21,290.0,,79.8,30.8,,,47.5,7.22,15.0,21.2,"Whiteman'S Crk At Ind Dr At Jonesboro, AR",35.8086111,-90.6422222,226.88,0.25,8020203.0,60.0,2009-10-29,2022-11-05,,POINT (-90.6422222 35.8086111)
158,07077652,"Lost Creek at Floyd St. at Jonesboro, AR",19.7,363.0,,20.5,2.61,,,47.7,10.1,21.0,33.0,"Lost Creek At Floyd St. At Jonesboro, AR",35.85,-90.7213889,267.16,0.25,8020203.0,60.0,2009-10-08,2022-11-27,,POINT (-90.7213889 35.85)
159,07047942,"LAnguille River near Colt, AR",0.000193,205.0,,,,,,,300.1,752.0,1518.0,"Languille River Near Colt, AR",35.1447222,-90.8780556,192.52,0.01,8020205.0,60.0,1970-10-01,2022-11-27,1390.728,POINT (-90.8780556 35.1447222)
160,07047950,"LAnguille River at Palestine, AR",1.5,206.0,,18.5,3.95,,,51.1,428.2,1196.0,3145.0,"Languille River At Palestine, AR",34.97277778,-90.8855556,166.68,10.0,8020205.0,60.0,1898-10-01,2022-11-27,1984.926,POINT (-90.8855556 34.97277778)
161,07076750,"White River at Georgetown, AR",,,,,,,,,18380.0,29982.0,42930.0,"White River At Georgetown, AR",35.12888889,-91.4497222,170.34,0.21,8020301.0,60.0,1927-10-01,2022-11-27,,POINT (-91.4497222 35.12888889)
162,07077000,"White River at DeValls Bluff, AR",,,,,,,,,13570.0,29289.0,47290.0,"White River At Devalls Bluff, AR",34.79444444,-91.4447222,152.93,10.0,8020301.0,60.0,1949-10-01,2022-11-27,,POINT (-91.4447222 34.79444444)
163,07077380,"Cache River at Egypt, AR",670.0,305.0,,5.62,0.48,,,48.1,325.7,919.0,1690.0,"Cache River At Egypt, AR",35.8575,-90.9330556,223.81,0.25,8020302.0,60.0,1964-10-01,2022-11-27,1792.358,POINT (-90.9330556 35.8575)
164,07077555,"Cache River near Cotton Plant, AR",1160.0,269.0,,5.67,0.49,,,48.7,807.8,1476.0,2631.0,"Cache River Near Cotton Plant, AR",35.03555556,-91.3225,164.17,10.0,8020302.0,60.0,1987-04-03,2022-11-27,2995.522,POINT (-91.3225 35.03555556)
165,07264000,"Bayou Meto near Lonoke, AR",207.0,313.0,,23.1,5.94,,,50.1,150.8,310.0,702.3,"Bayou Meto Near Lonoke, AR",34.73666667,-91.9158333,199.11,0.01,8020402.0,60.0,1954-10-01,2022-11-27,505.0566,POINT (-91.9158333 34.73666667)
166,07355870,"Gap Cr nr Wolf Pen Gap Rec Area nr Nunley, AR",3.22,1380.0,,4.17,0.2,,,62.4,3.91,8.0,12.1,"Gap Cr Nr Wolf Pen Gap Rec Area Nr Nunley, AR",34.4841111,-94.1261389,,,8040101.0,60.0,2014-03-10,2022-11-27,,POINT (-94.1261389 34.4841111)
167,07356000,"Ouachita River near Mount Ida, AR",414.0,1140.0,,5.03,0.78,,,59.7,313.9,752.0,1411.0,"Ouachita River Near Mount Ida, AR",34.61,-93.6975,687.0,14.0,8040101.0,60.0,1941-10-01,2022-11-27,1071.639,POINT (-93.6975 34.61)
168,07358250,"Whittington Cr at Whitt. Pk at Hot Springs, AR",,,,,,,,,0.29,1.0,1.99,"Whittington Cr At Whitt. Pk At Hot Springs, AR",34.51344444,-93.0804167,,,8040101.0,60.0,1970-10-01,2022-11-27,,POINT (-93.0804167 34.51344444)
169,07358253,"Whittington Cr at Tunnel Ent at Hot Springs, AR",2.16,852.0,,16.4,4.07,,,57.2,1.96,5.0,7.52,"Whittington Cr At Tunnel Ent At Hot Springs, AR",34.51716667,-93.0575,621.77,0.19,8040101.0,60.0,2008-06-23,2022-11-28,,POINT (-93.0575 34.51716667)
170,07358257,"Hot Sprngs Cr US of T.E. at Glade St at Hot Sp.,AR",0.81,758.0,,50.1,14.4,,,57.4,1.23,2.0,2.89,"Hot Sprngs Cr Us Of T.E. At Glade St At Hot, Sp,Ar",34.5236111,-93.0544444,636.41,0.16,8040101.0,60.0,2008-07-11,2022-11-27,,POINT (-93.0544444 34.5236111)
171,07358284,"Hot Springs Cr DS of Grand Ave at Hot Springs, AR",,,,,,,,,6.72,11.0,16.0,"Hot Springs Cr Ds Of Grand Ave At Hot Springs, AR",34.50277778,-93.0505556,549.72,0.03,8040101.0,60.0,2008-07-09,2022-11-27,,POINT (-93.0505556 34.50277778)
172,07358550,"Gulpha Creek at Hot Springs, AR",8.26,700.0,,8.98,2.17,,,57.0,4.07,8.0,11.8,"Gulpha Creek At Hot Springs, AR",34.50888889,-93.0091667,478.72,0.17,8040101.0,60.0,2009-08-14,2022-11-27,,POINT (-93.0091667 34.50888889)
173,07359002,"Ouachita River at Remmel Dam above Jones Mill, AR",0.000927,471.0,,8.33,0.0,,,,1202.0,2667.0,5322.0,"Ouachita River At Remmel Dam Above Jones Mill, AR",34.4261111,-92.8908333,,,8040102.0,60.0,2002-07-10,2022-11-27,4000.915,POINT (-92.8908333 34.4261111)
174,07359610,"Caddo River near Caddo Gap, AR",132.0,963.0,,3.14,0.38,,,59.1,143.4,274.0,423.2,"Caddo River Near Caddo Gap, AR",34.38277778,-93.6061111,612.0,141.0,8040102.0,60.0,1988-10-01,2022-11-27,342.2349,POINT (-93.6061111 34.38277778)
175,07362000,"Ouachita River at Camden, AR",5350.0,540.0,,7.37,0.96,,,55.9,3581.0,8559.0,20660.0,"Ouachita River At Camden, AR",33.59638889,-92.8180556,78.04,0.25,8040102.0,60.0,1928-10-01,2022-11-27,13843.42,POINT (-92.8180556 33.59638889)
176,07360200,"Little Missouri River near Langley, AR",67.9,1310.0,,2.57,0.16,,,64.4,82.6,161.0,269.1,"Little Missouri River Near Langley, AR",34.31166667,-93.8997222,727.0,14.0,8040103.0,60.0,1998-10-01,2022-11-27,175.9833,POINT (-93.8997222 34.31166667)
177,07361500,"Antoine River at Antoine, AR",,,,,,,,,111.6,295.0,612.9,"Antoine River At Antoine, AR",34.03888889,-93.4180556,229.33,0.01,8040103.0,60.0,1954-10-01,2022-11-27,464.2056,POINT (-93.4180556 34.03888889)
178,07362100,"Smackover Creek near Smackover, AR",0.000116,114.0,,33.3,15.0,,,,49.1,442.0,1152.0,"Smackover Creek Near Smackover, AR",33.37527778,-92.7766667,97.56,0.01,8040201.0,60.0,1961-10-01,2022-11-27,996.0786,POINT (-92.7766667 33.37527778)
179,07362500,"Moro Creek near Fordyce, AR",241.0,271.0,,5.72,1.51,,,53.9,52.3,289.0,828.3,,,,,,,,,,,
180,07362579,"South Alum Creek nr Jessieville, AR",5.32,1310.0,,4.14,0.25,,,61.7,4.09,10.0,17.4,"South Alum Creek Nr Jessieville, AR",34.79555556,-93.0069444,,,8040203.0,60.0,2009-05-16,2022-11-27,,POINT (-93.0069444 34.79555556)
181,07362587,"Alum Fork Saline River near Reform, AR",,,,,,,,,19.6,50.0,104.9,"Alum Fork Saline River Near Reform, AR",34.7975,-92.9338889,,,8040203.0,60.0,1989-09-14,2022-11-27,69.7725,POINT (-92.9338889 34.7975)
182,07363000,"Saline River at Benton, AR",7.72e-05,324.0,,100.0,15.0,,,,432.4,837.0,1778.0,"Saline River At Benton, AR",34.56777778,-92.6102778,260.91,0.01,8040203.0,60.0,1950-10-01,2022-11-27,1430.822,POINT (-92.6102778 34.56777778)
183,07363054,"Saline River near Shaw, AR",1.64,335.0,,7.26,1.34,,,53.7,1008.0,1272.0,1466.0,"Saline River Near Shaw, AR",34.49898229,-92.5629383,,,8040203.0,60.0,2017-09-20,2022-11-27,,POINT (-92.5629383 34.49898229)
184,07363200,"Saline River near Sheridan, AR",,,,,,,,,640.8,1637.0,3538.0,"Saline River Near Sheridan, AR",34.1161111,-92.4055556,152.86,0.01,8040203.0,60.0,1970-10-01,2022-11-27,2920.117,POINT (-92.4055556 34.1161111)
185,07363400,"Hurricane Creek below Sheridan, AR",,,,,,,,,82.3,348.0,985.3,"Hurricane Creek Below Sheridan, AR",34.2286111,-92.3725,,,8040203.0,60.0,1995-10-01,2022-11-27,676.3536,POINT (-92.3725 34.2286111)
186,07363500,"Saline River near Rye, AR",3.86e-05,115.0,,,,,,,862.0,2806.0,6512.0,"Saline River Near Rye, AR",33.7008333,-92.0258333,97.06,0.01,8040204.0,60.0,1937-10-01,2022-11-27,5429.344,POINT (-92.0258333 33.7008333)
187,07364133,"Bayou Bartholomew at Garrett Bridge, AR",401.0,214.0,,11.7,3.05,,,53.0,192.7,528.0,1012.0,"Bayou Bartholomew At Garrett Bridge, AR",33.86638889,-91.6561111,,,8040205.0,10.0,2005-02-19,2020-06-18,1049.648,POINT (-91.6561111 33.86638889)
188,07364150,"Bayou Bartholomew near McGehee, AR",0.00313,139.0,,0.0,0.0,,,,272.4,755.0,1317.0,"Bayou Bartholomew Near Mcgehee, AR",33.62777778,-91.4458333,120.48,0.01,8040205.0,60.0,1938-10-01,2022-11-27,1416.086,POINT (-91.4458333 33.62777778)
189,07364185,"Bayou Bartholomew near Portland, AR",0.000116,119.0,,0.0,0.0,,,,466.9,1431.0,2696.0,"Bayou Bartholomew Near Portland, AR",33.23555556,-91.5355556,,,8040205.0,60.0,1998-10-01,2022-11-27,2564.862,POINT (-91.5355556 33.23555556)
190,07367680,"Boeuf River nr Eudora, AR",571.0,142.0,,10.3,1.09,,,54.3,651.9,1224.0,1736.0,"Boeuf River Nr Eudora, AR",33.12416667,-91.3477778,,,8050001.0,60.0,2014-04-23,2022-11-27,,POINT (-91.3477778 33.12416667)
191,07369680,"Bayou Macon at Eudora, AR",7.72e-05,108.0,,100.0,9.0,,,,89.8,253.0,501.0,"Bayou Macon At Eudora, AR",33.10027778,-91.2544444,80.92,0.01,8050002.0,60.0,1988-10-01,2022-11-27,1270.986,POINT (-91.2544444 33.10027778)
192,07047980,"White River at Elkins, AR",182.0,1790.0,,3.2,0.26,,,52.9,332.7,435.0,574.7,"White River At Elkins, AR",36.0008333,-94.0036111,1176.64,0.25,11010001.0,60.0,2018-01-10,2022-11-27,,POINT (-94.0036111 36.0008333)
193,07048550,"West Fork White River east of Fayetteville, AR",,,,,,,,,83.9,191.0,423.7,"West Fork White River East Of Fayetteville, AR",36.05388889,-94.0830556,1149.48,0.25,11010001.0,10.0,2014-10-11,2022-11-27,317.6342,POINT (-94.0830556 36.05388889)
194,07048600,"White River near Fayetteville, AR",,,,,,,,,154.7,588.0,1196.0,"White River Near Fayetteville, AR",36.07305556,-94.0811111,1138.6,0.22,11010001.0,10.0,2017-06-21,2022-11-27,1032.986,POINT (-94.0811111 36.07305556)
195,07048780,"Richland Creek near Goshen, AR",119.0,1630.0,,3.61,0.38,,,49.5,70.7,129.0,186.4,"Richland Creek Near Goshen, AR",36.04855556,-93.9742222,1169.0,1.6,11010001.0,60.0,2015-08-07,2022-11-27,,POINT (-93.9742222 36.04855556)
196,07049000,"War Eagle Creek near Hindsville, AR",265.0,1610.0,,4.77,0.64,,,48.8,159.2,357.0,673.0,"War Eagle Creek Near Hindsville, AR",36.2,-93.855,1166.36,0.25,11010001.0,60.0,1952-07-01,2022-11-27,690.1732,POINT (-93.855 36.2)
197,07050500,"Kings River near Berryville, AR",529.0,1580.0,,4.24,0.51,,,47.9,291.8,643.0,1188.0,"Kings River Near Berryville, AR",36.4272222,-93.6208333,963.66,0.2,11010001.0,60.0,1939-04-01,2022-11-26,1367.203,POINT (-93.6208333 36.4272222)
198,07053250,"Yocum Creek near Oak Grove, AR",52.6,1300.0,,5.32,1.03,,,45.3,20.4,55.0,126.4,"Yocum Creek Near Oak Grove, AR",36.45444444,-93.3561111,974.19,0.25,11010001.0,60.0,1993-04-15,2022-11-27,136.1492,POINT (-93.3561111 36.45444444)
199,07055565,"Crooked Creek at Harrison, AR",71.9,1310.0,,12.7,3.85,,,45.9,50.7,87.0,112.8,"Crooked Creek At Harrison, AR",36.23257134,-93.0912871,,,11010003.0,60.0,2015-08-22,2022-11-27,,POINT (-93.0912871 36.23257134)
200,07055607,"Crooked Creek at Kelly Crossing at Yellville, AR",402.0,1110.0,,6.31,1.27,,,45.9,187.5,527.0,1256.0,"Crooked Creek At Kelly Crossing At Yellville, AR",36.23027778,-92.7094444,558.98,0.25,11010003.0,60.0,2006-12-06,2022-11-27,,POINT (-92.7094444 36.23027778)
201,07057370,"White River near Norfork, AR",,,,,,,,,3485.0,9688.0,17460.0,"White River Near Norfork, AR",36.2236111,-92.3,,,11010004.0,60.0,1996-05-18,2022-11-22,20812.18,POINT (-92.3 36.2236111)
202,07060500,"White River at Calico Rock, AR",0.000386,388.0,,100.0,58.8,,,,3125.0,10963.0,19870.0,"White River At Calico Rock, AR",36.11666667,-92.1430556,316.38,0.01,11010004.0,10.0,1991-05-15,2022-11-27,25801.86,POINT (-92.1430556 36.11666667)
203,07060710,"North Sylamore Creek near Fifty Six, AR",0.000348,695.0,,0.0,0.0,,,,15.1,48.0,130.1,"North Sylamore Creek Near Fifty Six, AR",35.99166667,-92.2138889,434.99,0.01,11010004.0,60.0,1965-12-09,2022-11-27,150.0277,POINT (-92.2138889 35.99166667)
204,07055646,"Buffalo River near Boxley, AR",58.8,2000.0,,1.95,0.0902,,,50.2,57.1,105.0,216.5,"Buffalo River Near Boxley, AR",35.93888889,-93.405,1142.04,0.18,11010005.0,60.0,1993-04-17,2022-11-27,152.9993,POINT (-93.405 35.93888889)
205,07055660,"Buffalo River at Ponca, AR",121.0,1890.0,,2.38,0.14,,,49.9,114.4,214.0,329.9,"Buffalo River At Ponca, AR",36.0225,-93.3547222,990.11,0.25,11010005.0,60.0,2008-05-03,2022-11-27,,POINT (-93.3547222 36.0225)
206,07055680,"Buffalo River at Pruitt, AR",0.000772,843.0,,0.0,0.0,,,,171.4,308.0,478.4,"Buffalo River At Pruitt, AR",36.05916667,-93.1377778,792.29,0.25,11010005.0,60.0,2008-06-14,2022-11-27,,POINT (-93.1377778 36.05916667)
207,07055875,"Richland Creek near Witts Spring, AR",67.3,1690.0,,2.28,0.12,,,50.7,64.0,121.0,229.1,"Richland Creek Near Witts Spring, AR",35.7972222,-92.9288889,988.41,0.25,11010005.0,60.0,1995-06-01,2022-11-27,174.6261,POINT (-92.9288889 35.7972222)
208,07056000,"Buffalo River near St. Joe, AR",828.0,1470.0,,3.2,0.23,,,48.7,402.8,1124.0,2522.0,"Buffalo River Near St. Joe, AR",35.98305556,-92.7472222,555.85,0.2,11010005.0,60.0,1939-10-01,2022-11-27,2149.364,POINT (-92.7472222 35.98305556)
209,07056515,"Bear Creek near Silver Hill, AR",78.5,1300.0,,4.36,0.59,,,47.1,60.4,116.0,211.3,"Bear Creek Near Silver Hill, AR",35.94,-92.7133333,632.95,0.25,11010005.0,10.0,1999-02-25,2015-12-08,209.871,POINT (-92.7133333 35.94)
210,07056700,"Buffalo River near Harriet, AR",1070.0,1370.0,,3.39,0.27,,,48.1,753.6,1507.0,2678.0,"Buffalo River Near Harriet, AR",36.06777778,-92.5775,479.87,0.25,11010005.0,60.0,2002-10-01,2022-11-27,2776.862,POINT (-92.5775 36.06777778)
211,07064000,"Black River near Corning, AR",1750.0,738.0,,5.08,0.55,,,47.2,898.6,2078.0,3861.0,"Black River Near Corning, AR",36.40194444,-90.5413889,271.34,0.2,11010007.0,60.0,1938-10-01,2022-11-27,4519.112,POINT (-90.5413889 36.40194444)
212,07064040,"Little River near Peach Orchard, AR",8.34,274.0,,2.79,0.12,,,48.3,919.1,1093.0,1267.0,"Little River Near Peach Orchard, AR",36.29716667,-90.6990833,0.0,1.6,11010007.0,60.0,2019-09-30,2022-11-28,,POINT (-90.6990833 36.29716667)
213,07069305,"Spring River at Spring Street Bridge at Hardy, AR",0.0639,433.0,,68.2,20.2,,,46.3,707.4,1137.0,1706.0,"Spring River At Spring Street Bridge At Hardy, AR",36.3136111,-91.4827778,342.49,0.2,11010008.0,60.0,2001-10-01,2022-11-27,2188.176,POINT (-91.4827778 36.3136111)
214,07069000,"Black River at Pocahontas, AR",,,,,,,,,3388.0,6632.0,9197.0,"Black River At Pocahontas, AR",36.25416667,-90.9702778,241.64,0.2,11010009.0,60.0,1936-01-01,2022-11-27,12557.44,POINT (-90.9702778 36.25416667)
215,07072500,"Black River at Black Rock, AR",7.72e-05,249.0,,100.0,28.0,,,,3776.0,9508.0,17650.0,"Black River At Black Rock, AR",36.1025,-91.0977778,229.56,0.01,11010009.0,60.0,1929-10-01,2022-11-27,18996.17,POINT (-91.0977778 36.1025)
216,07074420,"Black River at Elgin Ferry, AR",0.00185,220.0,,,,,,,5399.0,11034.0,17040.0,"Black River At Elgin Ferry, AR",35.76555556,-91.3002778,,,11010009.0,60.0,1999-01-20,2022-11-27,21533.09,POINT (-91.3002778 35.76555556)
217,07069190,Mammoth Spring at Mammoth Spring,0.22,596.0,,20.5,4.49,,,45.1,234.1,356.0,442.9,"Mammoth Spring At Mammoth, Spring",36.498118,-91.5356966,506.0,5.0,11010010.0,60.0,1981-02-25,2022-11-27,,POINT (-91.5356966 36.498118)
218,07069220,"Spring River near Mammoth Springs, AR",260.0,876.0,,7.69,1.73,,,45.8,403.0,630.0,1172.0,"Spring River Near Mammoth Springs, AR",36.46034098,-91.5268073,,,11010010.0,60.0,1988-03-17,2022-11-27,,POINT (-91.5268073 36.46034098)
219,07069295,"South Fork Spring River at Saddle, AR",7.72e-05,496.0,,100.0,36.0,,,,158.6,323.0,509.0,"South Fork Spring River At Saddle, AR",36.3522222,-91.6336111,,,11010010.0,60.0,2010-03-19,2022-11-27,,POINT (-91.6336111 36.3522222)
220,07069500,"Spring River at Imboden, AR",0.0034,271.0,,0.0,0.0,,,,469.7,1539.0,3044.0,"Spring River At Imboden, AR",36.20555556,-91.1716667,263.06,0.2,11010010.0,60.0,1936-04-01,2022-11-27,3007.21,POINT (-91.1716667 36.20555556)
221,07072000,"Eleven Point River near Ravenden Springs, AR",0.000463,317.0,,100.0,11.0,,,,435.2,1312.0,2509.0,"Eleven Point River Near Ravenden Springs, AR",36.34638889,-91.1141667,291.98,0.01,11010011.0,60.0,1929-10-01,2022-11-27,2894.979,POINT (-91.1141667 36.34638889)
222,07074000,"Strawberry River near Poughkeepsie, AR",0.000116,348.0,,,,,,,158.3,487.0,1143.0,,,,,,,,,,,
223,07074500,"White River at Newport, AR",0.000154,212.0,,100.0,0.0,,,,7864.0,23882.0,45440.0,"White River At Newport, AR",35.60527778,-91.2888889,194.36,0.25,11010013.0,60.0,1927-10-01,2022-11-27,,POINT (-91.2888889 35.60527778)
224,07074670,"Tuckerman Ditch at Tuckerman, AR",8.59,246.0,,10.1,1.53,,,49.0,4.58,8.0,10.1,"Tuckerman Ditch At Tuckerman, AR",35.7265,-91.2004722,234.0,4.3,11010013.0,60.0,2015-08-13,2022-11-27,,POINT (-91.2004722 35.7265)
225,07074850,"White River near Augusta, AR",3.86e-05,207.0,,,,,,,15730.0,25664.0,40480.0,"White River Near Augusta, AR",35.29444444,-91.3941667,169.72,0.2,11010013.0,60.0,1989-06-01,2022-11-27,,POINT (-91.3941667 35.29444444)
226,07075000,"Middle Fork of Little Red River at Shirley, AR",302.0,1280.0,,3.67,0.45,,,50.5,170.1,491.0,1043.0,"Middle Fork Of Little Red River At Shirley, AR",35.65666667,-92.2927778,498.64,0.01,11010014.0,60.0,1939-03-01,2022-11-27,781.4988,POINT (-92.2927778 35.65666667)
227,07075270,"South Fork of Little Red River near Scotland, AR",74.7,1330.0,,2.11,0.12,,,51.8,101.1,139.0,184.9,"South Fork Of Little Red River Near Scotland, AR",35.5697222,-92.6219444,663.57,0.25,11010014.0,10.0,2010-08-17,2022-11-27,,POINT (-92.6219444 35.5697222)
228,07075300,"South Fork of Little Red River at Clinton, AR",,,,,,,,,99.6,255.0,556.9,"South Fork Of Little Red River At Clinton, AR",35.58694444,-92.4513889,472.83,0.25,11010014.0,60.0,1961-10-01,2022-11-27,324.5139,POINT (-92.4513889 35.58694444)
229,07076517,"Little Red River near Dewey, AR",1340.0,995.0,,7.99,0.71,,,51.0,883.8,1977.0,3360.0,"Little Red River Near Dewey, AR",35.43805556,-91.7458333,205.51,0.25,11010014.0,60.0,1996-11-22,2022-11-27,3464.106,POINT (-91.7458333 35.43805556)
230,07191160,"Spavinaw Creek near Maysville, AR",88.8,1240.0,,6.99,1.12,,,47.2,22.6,90.0,245.3,"Spavinaw Creek Near Maysville, AR",36.36452259,-94.5513299,938.62,0.29,11070209.0,60.0,2001-10-01,2022-11-28,230.445,POINT (-94.5513299 36.36452259)
231,07191160,"Spavinaw Creek near Maysville, AR",88.8,1240.0,,6.99,1.12,,,47.2,22.6,90.0,245.3,"Spavinaw Creek Near Maysville, AR",36.36452259,-94.5513299,938.62,0.29,11070209.0,60.0,2001-10-01,2022-11-28,230.445,POINT (-94.5513299 36.36452259)
232,07191179,"Spavinaw Creek near Cherokee City, AR",,,,,,,,,27.4,106.0,283.7,"Spavinaw Creek Near Cherokee City, AR",36.3420235,-94.58772,906.18,0.25,11070209.0,60.0,2001-10-01,2022-11-28,267.6141,POINT (-94.58772 36.3420235)
233,07191179,"Spavinaw Creek near Cherokee City, AR",,,,,,,,,27.4,106.0,283.7,"Spavinaw Creek Near Cherokee City, AR",36.3420235,-94.58772,906.18,0.25,11070209.0,60.0,2001-10-01,2022-11-28,267.6141,POINT (-94.58772 36.3420235)
234,07194800,"Illinois River at Savoy, AR",167.0,1300.0,,8.66,1.66,,,48.1,34.9,184.0,396.6,"Illinois River At Savoy, AR",36.10305556,-94.3444444,1018.97,0.2,11110103.0,60.0,1979-06-21,2022-11-27,433.8765,POINT (-94.3444444 36.10305556)
235,07194880,"Osage Creek near Cave Springs, AR",34.4,1300.0,,61.1,23.7,,,47.1,32.7,60.0,103.0,"Osage Creek Near Cave Springs, AR",36.2814662,-94.2279838,1129.97,0.25,11110103.0,10.0,2011-10-08,2022-06-21,,POINT (-94.2279838 36.2814662)
236,07194906,"Spring Creek at Sanders Ave at Springdale, AR",5.46,1360.0,,85.9,38.6,,,46.7,3.04,10.0,16.1,"Spring Creek At Sanders Ave At Springdale, AR",36.19566667,-94.1358889,1258.12,0.25,11110103.0,60.0,2011-10-07,2022-11-27,,POINT (-94.1358889 36.19566667)
237,07194933,"Spring Creek at Hwy 112 nr Springdale, AR",35.2,1310.0,,43.6,16.3,,,46.8,37.9,72.0,112.3,"Spring Creek At Hwy 112 Nr Springdale, AR",36.24377778,-94.2391389,1085.29,0.25,11110103.0,10.0,2017-04-18,2022-11-28,,POINT (-94.2391389 36.24377778)
238,07195000,"Osage Creek near Elm Springs, AR",,,,,,,,,77.4,183.0,398.2,"Osage Creek Near Elm Springs, AR",36.22194444,-94.2883333,1054.1,0.25,11110103.0,60.0,1950-10-01,2022-11-27,335.583,POINT (-94.2883333 36.22194444)
239,07195400,Illinois River at Hwy. 16 near Siloam Springs AR,509.0,1260.0,,20.2,6.25,,,47.3,158.1,632.0,1334.0,"Illinois River At Hwy. 16 Near Siloam Springs, AR",36.1447222,-94.4947222,933.07,0.16,11110103.0,60.0,1979-06-21,2022-11-27,1316.445,POINT (-94.4947222 36.1447222)
240,07195430,"Illinois River South of Siloam Springs, AR",0.000734,936.0,,21.1,3.84,,,,289.7,708.0,1374.0,"Illinois River South Of Siloam Springs, AR",36.1086111,-94.5333333,913.14,0.25,11110103.0,60.0,1995-07-14,2022-11-27,1469.473,POINT (-94.5333333 36.1086111)
241,07195430,"Illinois River South of Siloam Springs, AR",0.000734,936.0,,21.1,3.84,,,,289.7,708.0,1374.0,"Illinois River South Of Siloam Springs, AR",36.1086111,-94.5333333,913.14,0.25,11110103.0,60.0,1995-07-14,2022-11-27,1469.473,POINT (-94.5333333 36.1086111)
242,07195800,"Flint Creek at Springtown, AR",,,,,,,,,5.71,16.0,35.8,"Flint Creek At Springtown, AR",36.2561111,-94.4336111,1173.47,0.01,11110103.0,60.0,1961-07-01,2022-11-27,38.2347,POINT (-94.4336111 36.2561111)
243,07195800,"Flint Creek at Springtown, AR",14.9,1330.0,,5.65,0.49,,,47.6,5.71,16.0,35.8,"Flint Creek At Springtown, AR",36.2561111,-94.4336111,1173.47,0.01,11110103.0,60.0,1961-07-01,2022-11-27,38.2347,POINT (-94.4336111 36.2561111)
244,07195855,"Flint Creek near West Siloam Springs, OK",,1230.0,,,,,,47.73,11.9,51.0,121.8,"Flint Creek Near West Siloam Springs, OK",36.2161111,-94.6052778,956.18,0.25,11110103.0,60.0,1979-10-01,2022-11-27,147.1878,POINT (-94.6052778 36.2161111)
245,07195855,"Flint Creek near West Siloam Springs, OK",,,,,,,,,11.9,51.0,121.8,"Flint Creek Near West Siloam Springs, OK",36.2161111,-94.6052778,956.18,0.25,11110103.0,60.0,1979-10-01,2022-11-27,147.1878,POINT (-94.6052778 36.2161111)
246,07196900,"Baron Fork at Dutch Mills, AR",41.1,1340.0,,4.21,0.58,,,50.2,9.54,50.0,118.6,"Baron Fork At Dutch Mills, AR",35.88,-94.4863889,986.47,0.01,11110103.0,60.0,1958-04-01,2022-11-27,106.3521,POINT (-94.4863889 35.88)
247,07196900,"Baron Fork at Dutch Mills, AR",41.1,1340.0,,4.21,0.58,,,50.2,9.54,50.0,118.6,"Baron Fork At Dutch Mills, AR",35.88,-94.4863889,986.47,0.01,11110103.0,60.0,1958-04-01,2022-11-27,106.3521,POINT (-94.4863889 35.88)
248,07249455,"Arkansas River at Ft. Smith, Ar.",,429.0,,,,,,45.08,8284.0,39873.0,89460.0,"Arkansas River At Ft. Smith, AR",35.3917577,-94.4324373,380.49,0.01,11110104.0,60.0,1997-10-08,2022-11-28,,POINT (-94.4324373 35.3917577)
249,07249455,"Arkansas River at Ft. Smith, Ar.",,,,,,,,,8284.0,39873.0,89460.0,"Arkansas River At Ft. Smith, AR",35.3917577,-94.4324373,380.49,0.01,11110104.0,60.0,1997-10-08,2022-11-28,,POINT (-94.4324373 35.3917577)
250,07249800,"Lee Creek at Short, OK",,1280.0,,,,,,51.14,156.5,347.0,671.9,"Lee Creek At Short, OK",35.5658333,-94.5319444,470.59,0.2,11110104.0,60.0,1999-09-16,2022-11-27,626.5035,POINT (-94.5319444 35.5658333)
251,07249800,"Lee Creek at Short, OK",,1280.0,,,,,,51.14,156.5,347.0,671.9,"Lee Creek At Short, OK",35.5658333,-94.5319444,470.59,0.2,11110104.0,60.0,1999-09-16,2022-11-27,626.5035,POINT (-94.5319444 35.5658333)
252,07249920,"Little Lee Creek near Nicut, OK",,1050.0,,,,,,49.77,56.0,131.0,257.1,"Little Lee Creek Near Nicut, OK",35.57305556,-94.5569444,505.71,0.21,11110104.0,60.0,2000-10-01,2022-11-27,264.2841,POINT (-94.5569444 35.57305556)
253,07249920,"Little Lee Creek near Nicut, OK",,1050.0,,,,,,49.77,56.0,131.0,257.1,"Little Lee Creek Near Nicut, OK",35.57305556,-94.5569444,505.71,0.21,11110104.0,60.0,2000-10-01,2022-11-27,264.2841,POINT (-94.5569444 35.57305556)
254,07249985,"Lee Creek near Short, OK",,459.0,,,,,,47.24,151.9,604.0,1387.0,"Lee Creek Near Short, OK",35.5172222,-94.4641667,429.92,0.23,11110104.0,60.0,1930-10-01,2022-11-27,1124.807,POINT (-94.4641667 35.5172222)
255,07249985,"Lee Creek near Short, OK",,459.0,,,,,,47.24,151.9,604.0,1387.0,"Lee Creek Near Short, OK",35.5172222,-94.4641667,429.92,0.23,11110104.0,60.0,1930-10-01,2022-11-27,1124.807,POINT (-94.4641667 35.5172222)
256,07250085,"Lee Creek at Lee Creek Reservoir near Van Buren,AR",,,,,,,,,203.0,574.0,1180.0,"Lee Creek At Lee Creek Reservoir Near Van, Buren,Ar",35.48444444,-94.3927778,408.0,10.0,11110104.0,60.0,1992-10-01,2022-11-27,1160.595,POINT (-94.3927778 35.48444444)
257,07247000,"Poteau River at Cauthron, AR",0.86,645.0,,7.89,0.67,,,49.6,44.9,259.0,647.5,"Poteau River At Cauthron, AR",34.91888889,-94.2994444,569.53,0.01,11110105.0,60.0,1939-03-01,2022-11-27,525.4191,POINT (-94.2994444 34.91888889)
258,07247000,"Poteau River at Cauthron, AR",0.86,645.0,,7.89,0.67,,,49.6,44.9,259.0,647.5,"Poteau River At Cauthron, AR",34.91888889,-94.2994444,569.53,0.01,11110105.0,60.0,1939-03-01,2022-11-27,525.4191,POINT (-94.2994444 34.91888889)
259,07249400,"James Fork near Hackett, AR",,,,,,,,,36.5,162.0,427.9,"James Fork Near Hackett, AR",35.1625,-94.4069444,459.71,0.01,11110105.0,60.0,1958-04-01,2022-11-27,379.5471,POINT (-94.4069444 35.1625)
260,07250935,"Jones Creek at Winfrey, AR",20.5,1670.0,,2.71,0.3,,,53.1,14.0,33.0,79.6,"Jones Creek At Winfrey, AR",35.7358333,-94.1030556,967.73,0.18,11110201.0,60.0,2000-10-01,2022-11-27,53.2044,POINT (-94.1030556 35.7358333)
261,07250965,"Frog Bayou at Winfrey, AR",0.0895,1380.0,,13.3,2.08,,,53.1,43.4,96.0,167.5,"Frog Bayou At Winfrey, AR",35.7222222,-94.1136111,924.4,0.2,11110201.0,60.0,2000-10-01,2022-11-27,143.046,POINT (-94.1136111 35.7222222)
262,07251500,"Frog Bayou at Rudy, AR",0.000232,483.0,,50.0,38.5,,,,142.0,323.0,470.2,"Frog Bayou At Rudy, AR",35.5258333,-94.2713889,475.41,0.18,11110201.0,60.0,1950-05-01,2022-11-27,561.384,POINT (-94.2713889 35.5258333)
263,07252000,"Mulberry River near Mulberry, AR",0.45,660.0,,4.99,0.44,,,49.7,196.4,612.0,1253.0,"Mulberry River Near Mulberry, AR",35.57694444,-94.0152778,433.0,0.2,11110201.0,60.0,1938-06-01,2022-11-27,968.9895,POINT (-94.0152778 35.57694444)
264,07257006,"Big Piney Creek at Highway 164 near Dover, AR",297.0,1400.0,,2.46,0.15,,,51.1,231.7,491.0,929.8,"Big Piney Creek At Highway 164 Near Dover, AR",35.5058333,-93.1813889,439.79,0.22,11110202.0,60.0,1992-10-01,2022-11-27,793.8243,POINT (-93.1813889 35.5058333)
265,07257500,"Illinois Bayou near Scottsville, AR",242.0,1260.0,,1.93,0.14,,,50.4,217.4,438.0,780.6,"Illinois Bayou Near Scottsville, AR",35.46638889,-93.0411111,447.63,0.18,11110202.0,10.0,2013-05-14,2015-10-22,625.6854,POINT (-93.0411111 35.46638889)
266,07257693,"Huckleberry Creek nr Augsburg, AR",2.13,650.0,,6.51,0.9,,,49.2,1.46,3.0,4.94,"Huckleberry Creek Nr Augsburg, AR",35.39305556,-93.2205556,500.0,14.0,11110202.0,60.0,2009-08-06,2022-11-27,,POINT (-93.2205556 35.39305556)
267,07260673,"West Fork Point Remove Creek near Hattieville, AR",222.0,751.0,,4.08,0.49,,,49.8,135.3,302.0,579.0,"West Fork Point Remove Creek Near Hattieville, AR",35.3247222,-92.8730556,280.0,14.0,11110203.0,60.0,2001-10-01,2022-11-27,,POINT (-92.8730556 35.3247222)
268,07258500,"Petit Jean River near Booneville, AR",241.0,747.0,,4.39,0.63,,,49.4,69.1,267.0,574.9,"Petit Jean River Near Booneville, AR",35.10694444,-93.9236111,423.67,0.2,11110204.0,60.0,1938-11-01,2022-11-27,623.9718,POINT (-93.9236111 35.10694444)
269,07260500,"Petit Jean River at Danville, AR",0.00656,343.0,,100.0,70.0,,,47.9,189.8,913.0,1921.0,"Petit Jean River At Danville, AR",35.0586111,-93.3955556,304.84,0.25,11110204.0,60.0,1916-06-01,2022-11-27,1975.217,POINT (-93.3955556 35.0586111)
270,07261000,"Cadron Creek near Guy, AR",0.000309,454.0,,12.5,10.8,,,,134.0,273.0,577.4,"Cadron Creek Near Guy, AR",35.2986111,-92.4038889,371.68,0.17,11110205.0,60.0,1954-10-01,2022-11-27,445.8141,POINT (-92.4038889 35.2986111)
271,07261090,"Cypress Creek nr Birdtown, AR",23.8,589.0,,5.82,0.86,,,50.9,19.2,37.0,60.9,"Cypress Creek Nr Birdtown, AR",35.2708333,-92.6302778,388.31,0.16,11110205.0,10.0,2009-07-08,2016-02-03,,POINT (-92.6302778 35.2708333)
272,07261500,"Fourche LaFave River Near Gravelly, AR",0.000811,420.0,,,,,,,128.1,594.0,1290.0,"Fourche Lafave River Near Gravelly, AR",34.8725,-93.6572222,411.15,0.25,11110206.0,60.0,1939-03-01,2022-11-27,1063.361,POINT (-93.6572222 34.8725)
273,07263000,"South Fourche LaFave River near Hollis, AR",,,,,,,,,129.3,311.0,589.8,,,,,,,,,,,
274,07263012,"Fourche LaFave River near Aplin, AR",955.0,833.0,,4.39,0.34,,,54.0,516.7,1426.0,2433.0,"Fourche Lafave River Near Aplin, AR",34.95666667,-92.985,269.1,0.19,11110206.0,60.0,2002-10-01,2022-11-27,2475.1,POINT (-92.985 34.95666667)
275,07263295,"Maumelle River at Williams Junction, AR",46.0,804.0,,4.52,0.32,,,54.8,33.5,70.0,157.4,"Maumelle River At Williams Junction, AR",34.8761111,-92.7744444,389.51,0.25,11110207.0,60.0,1989-08-10,2022-11-27,119.0277,POINT (-92.7744444 34.8761111)
276,07263296,"Maumelle River near Wye, AR",,,,,,,,,46.9,132.0,249.1,"Maumelle River Near Wye, AR",34.87888889,-92.6855556,286.13,0.25,11110207.0,10.0,2007-09-30,2022-11-27,185.517,POINT (-92.6855556 34.87888889)
277,07263300,"Maumelle River at Maumelle Dam at Natural Steps,AR",7.72e-05,297.0,,,,,,,0.0,142.0,393.0,"Maumelle River At Maumelle Dam At Natural, Steps,Ar",34.86305556,-92.4852778,200.0,0.25,11110207.0,60.0,1989-08-17,2022-11-27,355.1589,POINT (-92.4852778 34.86305556)
278,07263555,"Fourche Creek at Univ. Avenue at Little Rock, AR",0.96,303.0,,92.2,48.3,,,52.0,112.1,194.0,371.3,"Fourche Creek At Univ. Avenue At Little Rock, AR",34.70694444,-92.3444444,,,11110207.0,60.0,2007-09-08,2022-11-27,,POINT (-92.3444444 34.70694444)
279,07263580,"Rock Creek at 36th Street at Little Rock, AR",19.5,479.0,,77.0,30.8,,,51.8,14.0,29.0,61.7,"Rock Creek At 36Th Street At Little Rock, AR",34.72416667,-92.3588889,,,11110207.0,60.0,1996-10-01,2022-11-27,49.878,POINT (-92.3588889 34.72416667)
280,07337000,"Red River at Index, AR",,,,,,,,,3387.0,13656.0,36350.0,"Red River At Index, AR",33.55194444,-94.0411111,246.55,0.17,11140106.0,10.0,1997-10-01,2022-11-27,,POINT (-94.0411111 33.55194444)
281,07340000,"Little River near Horatio, AR",0.000502,291.0,,7.69,1.69,,,,1462.0,4191.0,7644.0,"Little River Near Horatio, AR",33.91944444,-94.3866667,272.85,0.01,11140109.0,60.0,1931-04-01,2022-11-27,6942.81,POINT (-94.3866667 33.91944444)
282,07340300,"Cossatot River near Vandervoort, AR",0.000116,810.0,,100.0,12.0,,,,84.1,191.0,362.0,"Cossatot River Near Vandervoort, AR",34.38,-94.2363889,771.74,0.2,11140109.0,60.0,1967-06-01,2022-11-27,230.4347,POINT (-94.2363889 34.38)
283,07341000,"Saline River near Dierks, AR",120.0,789.0,,7.44,0.58,,,59.0,114.2,245.0,434.7,"Saline River Near Dierks, AR",34.0961111,-94.085,353.0,0.2,11140109.0,60.0,1938-10-01,2022-11-27,312.0642,POINT (-94.085 34.0961111)
284,07341200,"Saline River near Lockesburg, AR",253.0,626.0,,6.88,0.7,,,57.3,129.1,410.0,841.8,"Saline River Near Lockesburg, AR",33.9622222,-94.0616667,299.69,0.19,11140109.0,60.0,1963-07-01,2022-11-27,654.9975,POINT (-94.0616667 33.9622222)
285,07341500,"Red River at Fulton, AR",,,,,,,,,8101.0,17543.0,35490.0,"Red River At Fulton, AR",33.60734285,-93.8137942,224.94,0.01,11140201.0,60.0,1927-10-01,2022-11-28,,POINT (-93.8137942 33.60734285)
286,07344370,"Red River at Spring Bank, AR",0.0012,231.0,,25.8,0.0,,,,6285.0,22789.0,52640.0,"Red River At Spring Bank, AR",33.08944444,-93.8594444,160.44,0.5,11140201.0,60.0,1997-10-01,2022-11-27,,POINT (-93.8594444 33.08944444)
287,07344370,"Red River at Spring Bank, AR",0.0012,231.0,,25.8,0.0,,,,6285.0,22789.0,52640.0,"Red River At Spring Bank, AR",33.08944444,-93.8594444,160.44,0.5,11140201.0,60.0,1997-10-01,2022-11-27,,POINT (-93.8594444 33.08944444)
288,09402500,"COLORADO RIVER NEAR GRAND CANYON, AZ",,,,,,,,,10490.0,14357.0,28380.0,,,,,,,,,,,
289,09404115,"HAVASU CREEK ABOVE THE MOUTH, NEAR SUPAI, AZ",2551.59,6028.773,,,,,6.0,14.2,68.8,74.0,89.4,,,,,,,,,,,
290,09404200,COLORADO RVR ABV DIAMOND CREEK NR PEACH SPRINGS AZ,,,,,,,,,11670.0,13826.0,22060.0,,,,,,,,,,,
291,09404208,"DIAMOND CREEK NEAR PEACH SPRINGS, AZ",276.16,4924.705,,,,,40.0,12.0,2.65,5.0,11.0,,,,,,,,,,,
292,09404104,"CATARACT CREEK AT REDLANDS CROSSING NEAR VALLE, AZ",,,,,,,,,0.0,0.0,2.62,,,,,,,,,,,
293,09404110,"HAVASU CREEK AT SUPAI, AZ",,,,,,,,,59.6,66.0,79.9,,,,,,,,,,,
294,09404222,"SPENCER CREEK NEAR PEACH SPRINGS, AZ",257.16,4781.791,,,,,23.0,12.8,1.05,5.0,30.8,,,,,,,,,,,
295,09404343,"TRUXTON WASH NEAR VALENTINE, AZ",375.23,5112.139,,,,,8.0,14.9,0.03,1.0,9.18,,,,,,,,,,,
296,09413700,"VIRGIN RV ABV THE NARROWS NR LITTLEFIELD, AZ",,,,,,,,,47.3,136.0,599.8,,,,,,,,,,,
297,09413700,"VIRGIN RV ABV THE NARROWS NR LITTLEFIELD, AZ",4135.03,5304.585,,,,,25.22,14.5,47.3,136.0,599.8,,,,,,,,,,,
298,09413700,"VIRGIN RV ABV THE NARROWS NR LITTLEFIELD, AZ",4135.03,5304.585,,,,,25.22,14.5,47.3,136.0,599.8,,,,,,,,,,,
299,09415000,"VIRGIN RV AT LITTLEFIELD, AZ",4813.82,5161.515,,,,,26.74,14.3,100.9,240.0,781.6,,,,,,,,,,,
300,09415000,"VIRGIN RV AT LITTLEFIELD, AZ",4813.82,5161.515,,,,,26.74,14.3,100.9,240.0,781.6,,,,,,,,,,,
301,09384000,"LITTLE COLORADO R ABV LYMAN LAKE NR ST. JOHNS, AZ",,,,,,,,,3.12,20.0,69.1,,,,,,,,,,,
302,09385700,"LITTLE COLORADO RIVER BELOW SALADO SPRINGS, AZ",817.75,7641.722,,,,,10.29,17.6,2.99,5.0,6.81,,,,,,,,,,,
303,09386300,"LITTLE COLORADO RVR BLW ZION RES. NR ST JOHNS, AZ",,,,,,,,,0.0,2.0,16.3,,,,,,,,,,,
304,09394500,"LITTLE COLORADO RIVER AT WOODRUFF, AZ",0.0,5160.302,,,,,0.0,9.6,4.84,37.0,125.4,,,,,,,,,,,
305,09396100,"PUERCO RIVER NEAR CHAMBERS, AZ",2160.11,6998.836,,,,,8.19,13.6,9.15,12.0,16.9,,,,,,,,,,,
306,09397000,"LITTLE COLORADO RIVER AT HOLBROOK, AZ",,,,,,,,,10.3,88.0,265.1,,,,,,,,,,,
307,09397300,"LITTLE COLORADO RIVER NEAR JOSEPH CITY, AZ",,,,,,,,,38.4,53.0,83.0,,,,,,,,,,,
308,09399400,"JACKS CANYON CREEK NEAR WINSLOW, AZ",,,,,,,,,0.0,3.0,13.2,,,,,,,,,,,
309,09397500,"CHEVELON FORK BELOW WILDCAT CANYON, NR WINSLOW, AZ",271.68,7070.079,,,,,12.0,24.8,0.0,29.0,75.1,,,,,,,,,,,
310,09401265,"PASTURE CANYON SPRINGS NEAR TUBA CITY, AZ",,,,,,,,,0.238,0.0,0.347,,,,,,,,,,,
311,09427520,"COLORADO RIVER BELOW PARKER DAM, AZ-CA",,,,,,,,,7644.0,10854.0,28190.0,"Colorado River Below Parker Dam, Az-Ca",34.29557035,-114.140225,300.54,20.0,15030104.0,60.0,1934-11-16,2022-11-28,,POINT (-114.140225 34.29557035)
312,09427520,"COLORADO RIVER BELOW PARKER DAM, AZ-CA",0.0,0.0,-100000.0,50.0,14.9,,,0.0,7644.0,10854.0,28190.0,"Colorado River Below Parker Dam, Az-Ca",34.29557035,-114.140225,300.54,20.0,15030104.0,60.0,1934-11-16,2022-11-28,,POINT (-114.140225 34.29557035)
313,09428510,"POSTON WASTEWAY NEAR POSTON, AZ",68.03,412.927,,,,,2.0,5.0,90.7,136.0,224.6,,,,,,,,,,,
314,09429100,"COLORADO RIVER BELOW PALO VERDE DAM, AZ-CA",0.0,282.0,-100000.0,0.0,0.0,,,4.24,6035.0,7478.0,11830.0,"Colorado River Below Palo Verde Dam, Az-Ca",33.71946626,-114.4980105,260.0,4.3,15030104.0,60.0,1956-03-24,2022-11-29,,POINT (-114.4980105 33.71946626)
315,09429100,"COLORADO RIVER BELOW PALO VERDE DAM, AZ-CA",0.0,282.0,-100000.0,0.0,0.0,,,4.24,6035.0,7478.0,11830.0,"Colorado River Below Palo Verde Dam, Az-Ca",33.71946626,-114.4980105,260.0,4.3,15030104.0,60.0,1956-03-24,2022-11-29,,POINT (-114.4980105 33.71946626)
316,09429600,"COLORADO RIVER BELOW LAGUNA DAM, AZ-CA",,,,,,,,,336.0,1410.0,14120.0,"Colorado River Below Laguna Dam, Az-Ca",32.8122666,-114.5149494,120.81,20.0,15030107.0,60.0,1971-12-16,2022-11-28,,POINT (-114.5149494 32.8122666)
317,09429600,"COLORADO RIVER BELOW LAGUNA DAM, AZ-CA",,,,,,,,,336.0,1410.0,14120.0,"Colorado River Below Laguna Dam, Az-Ca",32.8122666,-114.5149494,120.81,20.0,15030107.0,60.0,1971-12-16,2022-11-28,,POINT (-114.5149494 32.8122666)
318,09521100,"COLORADO R BLW YUMA MAIN CANAL WW AT YUMA, AZ",,,,,,,,,707.7,2073.0,14590.0,"Colorado R Blw Yuma Main Canal Ww At Yuma, AZ",32.73171354,-114.6327306,101.99,20.0,15030107.0,60.0,1963-10-01,2022-11-28,,POINT (-114.6327306 32.73171354)
319,09521100,"COLORADO R BLW YUMA MAIN CANAL WW AT YUMA, AZ",,,,,,,,,707.7,2073.0,14590.0,"Colorado R Blw Yuma Main Canal Ww At Yuma, AZ",32.73171354,-114.6327306,101.99,20.0,15030107.0,60.0,1963-10-01,2022-11-28,,POINT (-114.6327306 32.73171354)
320,09522400,"MITTRY LAKE DIVERSION AT IMPERIAL DAM, AZ",0.0,181.365,,,,,0.0,3.7,8.41,12.0,15.9,,,,,,,,,,,
321,09524000,"YUMA MAIN CANAL AT SIPHON DROP P.P. NR YUMA, AZ",0.0,151.0,0.0,16.7,24.7,,,3.88,386.8,713.0,1005.0,"Yuma Main Canal At Siphon Drop P.P. Nr Yuma, AZ",32.7767123,-114.6355087,155.0,2.5,15030107.0,60.0,1938-10-01,2022-11-29,,POINT (-114.6355087 32.7767123)
322,09524000,"YUMA MAIN CANAL AT SIPHON DROP P.P. NR YUMA, AZ",,,,,,,,,386.8,713.0,1005.0,"Yuma Main Canal At Siphon Drop P.P. Nr Yuma, AZ",32.7767123,-114.6355087,155.0,2.5,15030107.0,60.0,1938-10-01,2022-11-29,,POINT (-114.6355087 32.7767123)
323,09525500,"YUMA MAIN CANAL BLW COLORADO R. SIPHON AT YUMA, AZ",18.7,137.0,-100000.0,14.3,4.3,,,3.86,462.6,508.0,547.1,,,,,,,,,,,
324,09530000,"RESERVATION MAIN DRAIN NO. 4 NEAR YUMA, AZ",0.0,132.0,-100000.0,36.8,3.9,,,3.84,52.1,65.0,85.6,"Reservation Main Drain No. 4 Near Yuma, AZ",32.73726888,-114.621897,127.0,2.5,15030107.0,60.0,1966-10-01,2022-11-28,,POINT (-114.621897 32.73726888)
325,09530000,"RESERVATION MAIN DRAIN NO. 4 NEAR YUMA, AZ",0.0,132.0,-100000.0,36.8,3.9,,,3.84,52.1,65.0,85.6,"Reservation Main Drain No. 4 Near Yuma, AZ",32.73726888,-114.621897,127.0,2.5,15030107.0,60.0,1966-10-01,2022-11-28,,POINT (-114.621897 32.73726888)
326,09424450,"BIG SANDY RIVER NEAR WIKIEUP, AZ",0.0,1431.66,,,,,0.0,7.5,3.38,85.0,582.4,,,,,,,,,,,
327,09424900,"SANTA MARIA RIVER NEAR BAGDAD, AZ",1.86,1859.088,,,,,41.0,10.0,0.0,46.0,232.3,,,,,,,,,,,
328,09426620,"BILL WILLIAMS RIVER NEAR PARKER, AZ",5158.75,3640.318,,,,,25.09,14.6,0.0,69.0,864.6,,,,,,,,,,,
329,09431500,"GILA RIVER NEAR REDROCK, NM",2830.0,6895.0,,,,,,19.1,73.3,236.0,635.6,"Gila River Near Redrock, NM",32.72694444,-108.6755556,4090.0,10.0,15040002.0,60.0,1930-10-01,2022-11-27,7318.102,POINT (-108.6755556 32.72694444)
330,09431500,"GILA RIVER NEAR REDROCK, NM",2830.0,6895.0,,,,,,19.1,73.3,236.0,635.6,"Gila River Near Redrock, NM",32.72694444,-108.6755556,4090.0,10.0,15040002.0,60.0,1930-10-01,2022-11-27,7318.102,POINT (-108.6755556 32.72694444)
331,09432000,"GILA RIVER BELOW BLUE CREEK, NEAR VIRDEN, NM",3200.0,6686.0,,,,,,18.6,70.4,233.0,720.3,"Gila River Below Blue Creek, Near Virden, NM",32.64818333,-108.8460889,3869.0,4.3,15040002.0,60.0,1927-07-01,2022-11-27,8282.21,POINT (-108.8460889 32.64818333)
332,09432000,"GILA RIVER BELOW BLUE CREEK, NEAR VIRDEN, NM",3200.0,6686.0,,,,,,18.6,70.4,233.0,720.3,"Gila River Below Blue Creek, Near Virden, NM",32.64818333,-108.8460889,3869.0,4.3,15040002.0,60.0,1927-07-01,2022-11-27,8282.21,POINT (-108.8460889 32.64818333)
333,09444200,"BLUE RIVER NEAR CLIFTON, AZ.",504.77,6851.903,,,,,57.0,23.1,8.53,55.0,154.8,,,,,,,,,,,
334,09447000,"EAGLE CREEK ABOVE PUMPING PLANT, NEAR MORENCI, AZ.",620.97,6008.169,,,,,42.0,20.4,18.6,71.0,560.3,,,,,,,,,,,
335,09447800,"BONITA CREEK NEAR MORENCI, AZ.",302.32,5246.522,,,,,37.0,17.4,1.53,9.0,83.4,,,,,,,,,,,
336,09479350,"GILA RIVER NEAR MARICOPA, AZ.",,,,,,,,,0.0,0.0,4.52,,,,,,,,,,,
337,09470700,"BANNING CREEK NEAR BISBEE, AZ",0.0,4893.438,,,,,25.0,17.2,0.0,1.0,2.15,,,,,,,,,,,
338,09470750,"RAMSEY CANYON NEAR SIERRA VISTA, AZ",0.0,5774.77,,,,,100.0,26.3,0.033,0.0,1.32,,,,,,,,,,,
339,09470800,"GARDEN CANYON NEAR FORT HUACHUCA, AZ",,,,,,,,,0.028,1.0,4.71,,,,,,,,,,,
340,09471310,"HUACHUCA CANYON NEAR FORT HUACHUCA, AZ",0.0,5675.197,,,,,80.0,24.8,0.01,0.0,0.781,,,,,,,,,,,
341,09471380,"UPPER BABOCOMARI RIVER NEAR HUACHUCA CITY, AZ",0.02,4562.238,,,,,2.0,15.7,0.578,3.0,8.94,,,,,,,,,,,
342,09471400,"BABOCOMARI RIVER NEAR TOMBSTONE, AZ.",302.94,5005.085,,,,,14.0,17.8,0.458,2.0,8.15,,,,,,,,,,,
343,09471550,"SAN PEDRO RIVER NEAR TOMBSTONE, AZ",1729.18,4897.277,,,,,9.0,17.7,5.16,41.0,141.0,,,,,,,,,,,
344,09472050,"SAN PEDRO R AT REDINGTON BRIDGE NR REDINGTON, AZ",0.0,2832.185,,,,,0.0,15.3,3.21,12.0,22.5,,,,,,,,,,,
345,09473000,"ARAVAIPA CREEK NEAR MAMMOTH, AZ.",539.1,4566.732,,,,,47.0,18.6,8.85,32.0,165.9,,,,,,,,,,,
346,09480500,"SANTA CRUZ RIVER NEAR NOGALES, AZ.",531.71,4891.142,,,,,11.0,19.8,0.385,22.0,121.0,,,,,,,,,,,
347,09481740,"SANTA CRUZ RIVER AT TUBAC, AZ.",2.19,3394.882,,,,,3.0,17.1,4.95,25.0,114.5,,,,,,,,,,,
348,09482000,"SANTA CRUZ RIVER AT CONTINENTAL, AZ",0.0,2826.378,,,,,0.0,14.7,0.206,17.0,162.4,,,,,,,,,,,
349,09482500,"SANTA CRUZ RIVER AT TUCSON, AZ",2191.88,4096.129,,,,,18.0,18.5,0.946,13.0,43.1,,,,,,,,,,,
350,09486055,"RILLITO CREEK AT LA CHOLLA BLVD NEAR TUCSON, AZ.",0.0,2256.037,,,,,0.0,10.9,0.0,13.0,54.1,,,,,,,,,,,
351,09486350,"CANADA DEL ORO BLW INA ROAD, NEAR TUCSON, AZ.",254.88,3893.799,,,,,25.0,18.8,0.035,2.0,7.77,,,,,,,,,,,
352,09484000,"SABINO CREEK NEAR TUCSON, AZ",35.22,6073.228,,,,,81.0,30.2,1.73,16.0,56.5,,,,,,,,,,,
353,09484550,"CIENEGA CREEK NEAR SONOITA, AZ.",192.63,4973.655,,,,,13.0,19.8,0.594,2.0,13.8,,,,,,,,,,,
354,09484580,"BARREL CANYON NEAR SONOITA, AZ",13.95,5005.741,,,,,33.0,23.6,0.0,0.0,0.58,,,,,,,,,,,
355,09484600,"PANTANO WASH NEAR VAIL, AZ.",455.82,4618.373,,,,,19.0,19.1,0.592,5.0,20.8,,,,,,,,,,,
356,09485000,"RINCON CREEK NEAR TUCSON, AZ.",0.39,3267.159,,,,,1.0,15.5,0.022,6.0,30.0,,,,,,,,,,,
357,09486500,"SANTA CRUZ RIVER AT CORTARO, AZ",3460.55,4084.347,,,,,20.79,18.5,34.9,81.0,255.2,,,,,,,,,,,
358,09487000,"BRAWLEY WASH NEAR THREE POINTS, AZ.",785.48,3621.818,,,,,15.0,17.5,0.225,4.0,18.8,,,,,,,,,,,
359,09486520,"SANTA CRUZ RIVER AT TRICO ROAD, NR MARANA, AZ.",0.0,1901.115,,,,,0.0,11.1,11.6,43.0,130.7,,,,,,,,,,,
360,09489000,"SANTA CRUZ RIVER NEAR LAVEEN, AZ.",8550.13,3017.589,,,,,12.66,14.5,0.418,13.0,188.2,,,,,,,,,,,
361,09486800,"ALTAR WASH NEAR THREE POINTS, AZ.",,,,,,,,,0.066,4.0,20.0,,,,,,,,,,,
362,09489500,"BLACK RVR BLW PUMPING PLANT, NR POINT OF PINES, AZ",555.98,8058.333,,,,,22.0,27.7,33.4,201.0,600.3,,,,,,,,,,,
363,09490500,"BLACK RIVER NEAR FORT APACHE, AZ.",1223.71,7222.277,,,,,21.0,25.5,49.9,351.0,1130.0,,,,,,,,,,,
364,09492400,"EAST FORK WHITE RIVER NEAR FORT APACHE, AZ.",21.72,7612.795,,,,,26.0,30.0,9.57,32.0,75.2,,,,,,,,,,,
365,09494000,"WHITE RIVER NEAR FORT APACHE, AZ.",628.49,7240.814,,,,,26.0,29.1,37.9,177.0,477.0,,,,,,,,,,,
366,09497800,"CIBECUE CREEK NEAR CHRYSOTILE, AZ",,,,,,,,,12.5,41.0,176.5,,,,,,,,,,,
367,09497980,"CHERRY CREEK NEAR GLOBE, AZ",199.8,5542.749,,,,,39.0,26.8,3.59,31.0,115.6,,,,,,,,,,,
368,09498400,"PINAL CREEK AT INSPIRATION DAM, NR GLOBE, AZ.",195.41,4171.424,,,,,48.0,21.0,1.09,9.0,84.9,,,,,,,,,,,
369,09498500,"SALT RIVER NEAR ROOSEVELT, AZ",4289.37,6182.559,,,,,32.63,24.5,167.4,834.0,3037.0,,,,,,,,,,,
370,09498501,"PINTO CREEK BLW HAUNTED CANYON NR MIAMI, AZ",,,,,,,,,0.178,5.0,23.7,,,,,,,,,,,
371,09498502,"PINTO CREEK NEAR MIAMI, AZ",,,,,,,,,0.336,11.0,53.7,,,,,,,,,,,
372,09498503,"SOUTH FORK PARKER CREEK NEAR ROOSEVELT, AZ",1.08,6647.146,,,,,71.0,33.5,0.004,0.0,1.43,,,,,,,,,,,
373,09496500,"CARRIZO CREEK NEAR SHOW LOW, AZ.",441.43,6328.51,,,,,37.0,22.2,3.61,41.0,171.5,,,,,,,,,,,
374,09499000,"TONTO CREEK ABOVE GUN CREEK, NEAR ROOSEVELT, AZ",672.23,5083.268,,,,,42.0,25.9,3.95,161.0,648.3,,,,,,,,,,,
375,09502000,"SALT RIVER BLW STEWART MOUNTAIN DAM, AZ.",6211.84,5545.08,,,,,37.39,24.0,159.8,868.0,4501.0,,,,,,,,,,,
376,09512162,"INDIAN BEND WASH AT CURRY ROAD, TEMPE, AZ.",0.21,1184.121,,,,,0.0,9.2,0.024,3.0,28.9,,,,,,,,,,,
377,09512280,"CAVE CREEK BLW COTTONWOOD CR NEAR CAVE CREEK, AZ.",,,,,,,,,0.022,6.0,50.9,,,,,,,,,,,
378,09502800,"WILLIAMSON VALLEY WASH NEAR PAULDEN, AZ",0.0,4466.864,,,,,0.0,11.9,0.243,13.0,72.5,,,,,,,,,,,
379,09502900,"DEL RIO SPRINGS NEAR CHINO VALLEY, AZ",39.87,4762.27,,,,,0.0,13.0,0.376,1.0,2.06,,,,,,,,,,,
380,09502960,"GRANITE CREEK AT PRESCOTT, AZ",30.22,5951.575,,,,,19.0,22.6,0.826,7.0,22.7,,,,,,,,,,,
381,09503000,"GRANITE CREEK NEAR PRESCOTT, AZ",0.0,5339.567,,,,,70.0,19.6,1.4,7.0,25.3,,,,,,,,,,,
382,09503300,"GRANITE CREEK BELOW WATSON LAKE NEAR PRESCOTT, AZ",,,,,,,,,0.113,4.0,23.3,,,,,,,,,,,
383,09503700,"VERDE RIVER NEAR PAULDEN, AZ",0.0,4124.803,,,,,0.0,14.6,19.2,41.0,215.5,,,,,,,,,,,
384,09504000,"VERDE RIVER NEAR CLARKDALE, AZ",3143.18,5601.302,,,,,10.38,17.5,69.1,156.0,632.5,,,,,,,,,,,
385,09504420,"OAK CREEK NEAR SEDONA, AZ",232.76,6726.772,,,,,17.0,27.1,31.0,78.0,227.6,,,,,,,,,,,
386,09504500,"OAK CREEK NEAR CORNVILLE, AZ",355.08,6107.841,,,,,24.0,24.8,25.5,85.0,252.0,,,,,,,,,,,
387,09505200,"WET BEAVER CREEK NEAR RIMROCK, AZ",,,,,,,,,6.87,30.0,89.3,,,,,,,,,,,
388,09505350,"DRY BEAVER CREEK NEAR RIMROCK, AZ",142.14,6191.043,,,,,15.0,25.1,0.351,40.0,146.1,,,,,,,,,,,
389,09505800,"WEST CLEAR CREEK NEAR CAMP VERDE, AZ",241.42,6635.171,,,,,13.0,26.1,15.4,56.0,184.3,,,,,,,,,,,
390,09507480,"FOSSIL CREEK NEAR STRAWBERRY, AZ",68.42,5887.959,,,,,28.0,26.4,40.6,50.0,75.1,,,,,,,,,,,
391,09507980,"EAST VERDE RIVER NEAR CHILDS, AZ",326.37,5245.735,,,,,34.0,26.5,2.07,61.0,288.4,,,,,,,,,,,
392,09508300,"WET BOTTOM CREEK NEAR CHILDS, AZ",,,,,,,,,0.124,14.0,52.3,,,,,,,,,,,
393,09508500,"VERDE RVR BLW TANGLE CREEK, ABV HORSESHOE DAM, AZ",,,,,,,,,191.1,412.0,855.9,,,,,,,,,,,
394,09510000,"VERDE RIVER BELOW BARTLETT DAM, AZ",0.0,1590.518,,,,,100.0,15.2,156.5,578.0,2478.0,,,,,,,,,,,
395,09510200,"SYCAMORE CREEK NEAR FORT MCDOWELL, AZ",163.99,3802.723,,,,,52.0,24.3,0.057,26.0,154.2,,,,,,,,,,,
396,09511300,"VERDE RIVER NEAR SCOTTSDALE, AZ",0.0,1445.899,,,,,86.0,11.4,134.2,564.0,2451.0,,,,,,,,,,,
397,09514100,"GILA RIVER AT ESTRELLA PARKWAY, NEAR GOODYEAR, AZ",3.26,1094.652,,,,,25.0,8.0,0.688,411.0,8388.0,,,,,,,,,,,
398,09519000,"ENTERPRISE CANAL AT GILLESPIE DAM, AZ",14.51,1071.194,,,,,12.0,7.8,3.08,11.0,14.3,,,,,,,,,,,
399,09512450,"AGUA FRIA RIVER NEAR HUMBOLDT, AZ",174.77,5425.098,,,,,21.0,18.8,1.84,5.0,14.7,,,,,,,,,,,
400,09512500,"AGUA FRIA RIVER NEAR MAYER, AZ",585.17,4937.566,,,,,22.0,19.2,1.65,24.0,143.4,,,,,,,,,,,
401,09512800,"AGUA FRIA RIVER NEAR ROCK SPRINGS, AZ",0.0,1803.871,,,,,0.0,13.2,2.11,69.0,498.0,,,,,,,,,,,
402,09513780,"NEW RIVER NEAR ROCK SPRINGS, AZ.",68.39,3966.765,,,,,51.0,20.8,0.001,11.0,76.9,,,,,,,,,,,
403,09513860,"SKUNK CREEK NEAR PHOENIX, AZ",65.02,2240.42,,,,,17.0,13.9,0.0,1.0,8.64,,,,,,,,,,,
404,09516500,"HASSAYAMPA RIVER NEAR MORRISTOWN, AZ.",,,,,,,,,0.0,22.0,220.2,,,,,,,,,,,
405,09517490,CENTENNIAL WASH AT SOUTHERN PACIFIC RAILROAD BRDG,0.0,852.1,,,,,0.0,7.4,0.0,2.0,8.85,,,,,,,,,,,
406,09519800,"GILA RIVER BELOW PAINTED ROCK DAM, AZ",0.0,627.986,,,,,67.0,5.7,0.0,394.0,7027.0,,,,,,,,,,,
407,09520280,"GILA RIVER NEAR DATELAND, AZ",0.0,372.539,,,,,0.0,4.2,0.0,57.0,843.2,,,,,,,,,,,
408,09520500,"GILA RIVER NEAR DOME, AZ",57169.23,3801.694,,,,,21.73,15.5,1.07,306.0,6536.0,,,,,,,,,,,
409,09537200,"LESLIE CREEK NEAR MCNEAL, AZ.",78.84,5331.627,,,,,25.0,18.2,0.0,1.0,3.57,,,,,,,,,,,
410,09537500,"WHITEWATER DRAW NEAR DOUGLAS, AZ.",1230.9,4744.849,,,,,13.0,15.8,0.151,5.0,20.3,,,,,,,,,,,
411,09423350,CARUTHERS C NR IVANPAH CA,0.9,6404.0,23.1,0.0,0.0,,,11.6,0.0,0.0,0.356,"Caruthers C Nr Ivanpah, CA",35.24500556,-115.2989889,5669.0,1.6,15030102.0,60.0,1963-10-01,2022-11-29,2.2428,POINT (-115.2989889 35.24500556)
412,10336610,"UPPER TRUCKEE RV AT SOUTH LAKE TAHOE, CA",53.8,7609.0,39.1,10.0,2.4,,,45.8,29.6,97.0,258.1,"Upper Truckee Rv At South Lake Tahoe, CA",38.9224078,-119.9915706,6229.04,0.01,16050101.0,10.0,1981-03-10,2022-11-30,139.6478,POINT (-119.9915706 38.9224078)
413,10336610,"UPPER TRUCKEE RV AT SOUTH LAKE TAHOE, CA",53.8,7609.0,39.1,10.0,2.4,,,45.8,29.6,97.0,258.1,"Upper Truckee Rv At South Lake Tahoe, CA",38.9224078,-119.9915706,6229.04,0.01,16050101.0,10.0,1981-03-10,2022-11-30,139.6478,POINT (-119.9915706 38.9224078)
414,10336645,GENERAL C NR MEEKS BAY CA,7.5,7184.0,50.3,0.6,0.1,,,46.8,4.94,17.0,42.0,"General C Nr Meeks Bay, CA",39.05185197,-120.1185209,,,16050101.0,10.0,1980-10-22,2022-11-30,19.5984,POINT (-120.1185209 39.05185197)
415,10336645,GENERAL C NR MEEKS BAY CA,7.5,7184.0,50.3,0.6,0.1,,,46.8,4.94,17.0,42.0,"General C Nr Meeks Bay, CA",39.05185197,-120.1185209,,,16050101.0,10.0,1980-10-22,2022-11-30,19.5984,POINT (-120.1185209 39.05185197)
416,10336660,BLACKWOOD C NR TAHOE CITY CA,11.9,7241.0,53.6,2.7,0.2,,,57.4,8.96,35.0,82.3,"Blackwood C Nr Tahoe City, CA",39.10740708,-120.1621352,6234.59,20.0,16050101.0,10.0,1980-12-06,2022-11-30,29.7963,POINT (-120.1621352 39.10740708)
417,10336660,BLACKWOOD C NR TAHOE CITY CA,11.9,7241.0,53.6,2.7,0.2,,,57.4,8.96,35.0,82.3,"Blackwood C Nr Tahoe City, CA",39.10740708,-120.1621352,6234.59,20.0,16050101.0,10.0,1980-12-06,2022-11-30,29.7963,POINT (-120.1621352 39.10740708)
418,10336676,WARD C AT HWY 89 NR TAHOE PINES CA,9.5,7281.0,56.7,1.7,0.3,,,59.7,5.5,26.0,67.0,"Ward C At Hwy 89 Nr Tahoe Pines, CA",39.1321292,-120.1576913,,,16050101.0,10.0,1980-10-22,2022-11-30,24.7167,POINT (-120.1576913 39.1321292)
419,10336676,WARD C AT HWY 89 NR TAHOE PINES CA,9.5,7281.0,56.7,1.7,0.3,,,59.7,5.5,26.0,67.0,"Ward C At Hwy 89 Nr Tahoe Pines, CA",39.1321292,-120.1576913,,,16050101.0,10.0,1980-10-22,2022-11-30,24.7167,POINT (-120.1576913 39.1321292)
420,10336780,"TROUT CK NR TAHOE VALLEY, CA",36.7,7932.0,43.1,3.2,0.9,,,34.9,9.49,36.0,114.5,"Trout Ck Nr Tahoe Valley, CA",38.9199077,-119.9724036,6241.57,5.0,16050101.0,10.0,1981-02-19,2022-11-30,95.1021,POINT (-119.9724036 38.9199077)
421,10336780,"TROUT CK NR TAHOE VALLEY, CA",36.7,7932.0,43.1,3.2,0.9,,,34.9,9.49,36.0,114.5,"Trout Ck Nr Tahoe Valley, CA",38.9199077,-119.9724036,6241.57,5.0,16050101.0,10.0,1981-02-19,2022-11-30,95.1021,POINT (-119.9724036 38.9199077)
422,10337500,TRUCKEE R A TAHOE CITY CA,505.6,6967.0,27.0,44.6,1.5,,,34.8,0.085,228.0,1170.0,"Truckee R A Tahoe City, CA",39.16629577,-120.1443586,6216.59,0.05,16050102.0,10.0,1993-06-05,2014-09-30,1312.217,POINT (-120.1443586 39.16629577)
423,10337500,TRUCKEE R A TAHOE CITY CA,,,,,,,,,0.085,228.0,1170.0,"Truckee R A Tahoe City, CA",39.16629577,-120.1443586,6216.59,0.05,16050102.0,10.0,1993-06-05,2014-09-30,1312.217,POINT (-120.1443586 39.16629577)
424,10338000,TRUCKEE R NR TRUCKEE CA,553.1,6969.0,28.8,40.9,1.5,,,35.9,30.9,280.0,825.7,"Truckee R Nr Truckee, CA",39.2962952,-120.2054752,5860.0,20.0,16050102.0,10.0,1977-07-09,1995-09-30,1432.165,POINT (-120.2054752 39.2962952)
425,10338000,TRUCKEE R NR TRUCKEE CA,,,,,,,,,30.9,280.0,825.7,"Truckee R Nr Truckee, CA",39.2962952,-120.2054752,5860.0,20.0,16050102.0,10.0,1977-07-09,1995-09-30,1432.165,POINT (-120.2054752 39.2962952)
426,10338500,DONNER C A DONNER LK NR TRUCKEE CA,14.6,6750.0,38.3,17.8,4.0,,,46.7,3.63,37.0,96.7,"Donner C A Donner Lk Nr Truckee, CA",39.3235172,-120.2343654,5924.4,0.01,16050102.0,60.0,1929-01-01,2022-11-29,37.9008,POINT (-120.2343654 39.3235172)
427,10338500,DONNER C A DONNER LK NR TRUCKEE CA,14.6,6750.0,38.3,17.8,4.0,,,46.7,3.63,37.0,96.7,"Donner C A Donner Lk Nr Truckee, CA",39.3235172,-120.2343654,5924.4,0.01,16050102.0,60.0,1929-01-01,2022-11-29,37.9008,POINT (-120.2343654 39.3235172)
428,10338700,DONNER C AT HWY 89 NR TRUCKEE CA,29.3,6813.0,43.3,11.9,3.4,,,46.9,23.5,75.0,181.4,"Donner C At Hwy 89 Nr Truckee, CA",39.32101739,-120.2079759,5870.0,20.0,16050102.0,10.0,1993-08-13,1995-08-09,75.9195,POINT (-120.2079759 39.32101739)
429,10338700,DONNER C AT HWY 89 NR TRUCKEE CA,29.3,6813.0,43.3,11.9,3.4,,,46.9,23.5,75.0,181.4,"Donner C At Hwy 89 Nr Truckee, CA",39.32101739,-120.2079759,5870.0,20.0,16050102.0,10.0,1993-08-13,1995-08-09,75.9195,POINT (-120.2079759 39.32101739)
430,10343000,INDEPENDENCE C NR TRUCKEE CA,8.3,7562.0,35.8,12.6,0.0,,,48.8,5.51,22.0,51.8,"Independence C Nr Truckee, CA",39.4565717,-120.2871477,6940.0,20.0,16050102.0,60.0,1909-10-21,2022-11-29,21.4002,POINT (-120.2871477 39.4565717)
431,10343000,INDEPENDENCE C NR TRUCKEE CA,8.3,7562.0,35.8,12.6,0.0,,,48.8,5.51,22.0,51.8,"Independence C Nr Truckee, CA",39.4565717,-120.2871477,6940.0,20.0,16050102.0,60.0,1909-10-21,2022-11-29,21.4002,POINT (-120.2871477 39.4565717)
432,10343500,SAGEHEN C NR TRUCKEE CA,10.6,7095.0,57.6,0.0,0.1,,,38.0,2.65,12.0,32.7,"Sagehen C Nr Truckee, CA",39.43157246,-120.2379793,6320.0,20.0,16050102.0,10.0,1969-10-01,2022-11-30,27.6027,POINT (-120.2379793 39.43157246)
433,10343500,SAGEHEN C NR TRUCKEE CA,10.6,7095.0,57.6,0.0,0.1,,,38.0,2.65,12.0,32.7,"Sagehen C Nr Truckee, CA",39.43157246,-120.2379793,6320.0,20.0,16050102.0,10.0,1969-10-01,2022-11-30,27.6027,POINT (-120.2379793 39.43157246)
434,10344400,LITTLE TRUCKEE R AB BOCA RES NR TRUCKEE CA,,,,,,,,,52.6,160.0,485.4,"Little Truckee R Ab Boca Res Nr Truckee, CA",39.43574106,-120.084366,5618.67,20.0,16050102.0,60.0,1939-09-01,2022-11-29,377.4933,POINT (-120.084366 39.43574106)
435,10344400,LITTLE TRUCKEE R AB BOCA RES NR TRUCKEE CA,145.8,6824.0,39.7,5.1,0.2,,,40.0,52.6,160.0,485.4,"Little Truckee R Ab Boca Res Nr Truckee, CA",39.43574106,-120.084366,5618.67,20.0,16050102.0,60.0,1939-09-01,2022-11-29,377.4933,POINT (-120.084366 39.43574106)
436,10344500,LITTLE TRUCKEE R BL BOCA DAM NR TRUCKEE CA,172.2,6693.0,37.7,5.1,0.3,,,38.2,43.3,173.0,520.6,"Little Truckee R Bl Boca Dam Nr Truckee, CA",39.38685177,-120.0954757,5500.0,20.0,16050102.0,10.0,1980-04-19,1998-09-30,445.842,POINT (-120.0954757 39.38685177)
437,10344500,LITTLE TRUCKEE R BL BOCA DAM NR TRUCKEE CA,172.2,6693.0,37.7,5.1,0.3,,,38.2,43.3,173.0,520.6,"Little Truckee R Bl Boca Dam Nr Truckee, CA",39.38685177,-120.0954757,5500.0,20.0,16050102.0,10.0,1980-04-19,1998-09-30,445.842,POINT (-120.0954757 39.38685177)
438,10344505,TRUCKEE R A BOCA BRIDGE NR TRUCKEE CA,872.9,6849.0,32.5,28.7,1.5,,,36.8,183.4,613.0,1704.0,"Truckee R A Boca Bridge Nr Truckee, CA",39.38518517,-120.0876977,5484.0,20.0,16050102.0,60.0,2002-08-28,2022-11-29,,POINT (-120.0876977 39.38518517)
439,10344505,TRUCKEE R A BOCA BRIDGE NR TRUCKEE CA,,,,,,,,,183.4,613.0,1704.0,"Truckee R A Boca Bridge Nr Truckee, CA",39.38518517,-120.0876977,5484.0,20.0,16050102.0,60.0,2002-08-28,2022-11-29,,POINT (-120.0876977 39.38518517)
440,10346000,TRUCKEE R A FARAD CA,0.1,5740.0,12.2,1.5,0.7,,,26.1,193.8,769.0,2567.0,"Truckee R A Farad, CA",39.42796385,-120.0340873,5153.21,0.01,16050102.0,10.0,1993-07-17,2022-11-29,2415.852,POINT (-120.0340873 39.42796385)
441,10346000,TRUCKEE R A FARAD CA,0.1,5740.0,12.2,1.5,0.7,,,26.1,193.8,769.0,2567.0,"Truckee R A Farad, CA",39.42796385,-120.0340873,5153.21,0.01,16050102.0,10.0,1993-07-17,2022-11-29,2415.852,POINT (-120.0340873 39.42796385)
442,10308200,E FK CARSON RV BLW MARKLEEVILLE CK NR MARKLEEVILLE,276.8,7913.0,31.5,0.8,0.2,,,38.1,85.4,349.0,976.0,"E Fk Carson Rv Blw Markleeville Ck Nr, Markleeville",38.7146274,-119.7648985,5400.0,20.0,16050201.0,60.0,1960-09-01,2022-11-29,716.4228,POINT (-119.7648985 38.7146274)
443,10308200,E FK CARSON RV BLW MARKLEEVILLE CK NR MARKLEEVILLE,276.8,7913.0,31.5,0.8,0.2,,,38.1,85.4,349.0,976.0,"E Fk Carson Rv Blw Markleeville Ck Nr, Markleeville",38.7146274,-119.7648985,5400.0,20.0,16050201.0,60.0,1960-09-01,2022-11-29,716.4228,POINT (-119.7648985 38.7146274)
444,10308784,LEVIATHAN MINE ADIT DRAIN NR MARKLEEVILLE CA,0.1,7244.0,4.86,3.6,0.4,,,24.4,0.02,0.0,0.06,"Leviathan Mine Adit Drain Nr Markleeville, CA",38.70407294,-119.6587837,7100.0,40.0,16050201.0,60.0,1998-11-02,2022-11-29,,POINT (-119.6587837 38.70407294)
445,10308789,LEVIATHAN C AB ASPEN C NR MARKLEEVILLE CA,7.3,7774.0,31.8,0.7,0.2,,,25.7,0.092,1.0,5.79,"Leviathan C Ab Aspen C Nr Markleeville, CA",38.7168505,-119.6601726,6700.0,40.0,16050201.0,60.0,1998-10-24,2022-11-29,18.8181,POINT (-119.6601726 38.7168505)
446,10310000,"W FK CARSON RV AT WOODFORDS, CA",65.5,8068.0,30.3,1.9,0.4,,,43.0,26.1,101.0,263.3,"W Fk Carson Rv At Woodfords, CA",38.76962765,-119.833789,5754.5,0.1,16050201.0,60.0,1900-10-01,2022-11-29,169.3294,POINT (-119.833789 38.76962765)
447,10310000,"W FK CARSON RV AT WOODFORDS, CA",65.5,8068.0,30.3,1.9,0.4,,,43.0,26.1,101.0,263.3,"W Fk Carson Rv At Woodfords, CA",38.76962765,-119.833789,5754.5,0.1,16050201.0,60.0,1900-10-01,2022-11-29,169.3294,POINT (-119.833789 38.76962765)
448,10289500,"GREEN CK NR BRIDGEPORT, CA",19.6,9561.0,9.61,2.2,0.0,,,31.6,12.6,28.0,50.8,"Green Ck Nr Bridgeport, CA",38.17380969,-119.2337656,6880.0,20.0,16050301.0,60.0,1953-10-01,2022-11-29,50.7591,POINT (-119.2337656 38.17380969)
449,10289500,"GREEN CK NR BRIDGEPORT, CA",19.6,9561.0,9.61,2.2,0.0,,,31.6,12.6,28.0,50.8,"Green Ck Nr Bridgeport, CA",38.17380969,-119.2337656,6880.0,20.0,16050301.0,60.0,1953-10-01,2022-11-29,50.7591,POINT (-119.2337656 38.17380969)
450,10290500,"ROBINSON CK AT TWIN LKS OUTLET NR BRIDGEPORT, CA",,,,,,,,,25.4,64.0,106.4,"Robinson Ck At Twin Lks Outlet Nr Bridgeport, CA",38.17214225,-119.3246032,7050.0,10.0,16050301.0,60.0,1953-10-01,2022-11-29,101.5452,POINT (-119.3246032 38.17214225)
451,10290500,"ROBINSON CK AT TWIN LKS OUTLET NR BRIDGEPORT, CA",39.2,9352.0,10.9,4.4,0.1,,,37.7,25.4,64.0,106.4,"Robinson Ck At Twin Lks Outlet Nr Bridgeport, CA",38.17214225,-119.3246032,7050.0,10.0,16050301.0,60.0,1953-10-01,2022-11-29,101.5452,POINT (-119.3246032 38.17214225)
452,10291500,"BUCKEYE CK NR BRIDGEPORT, CA",,,,,,,,,18.5,58.0,104.3,"Buckeye Ck Nr Bridgeport, CA",38.23880787,-119.3259923,6900.0,10.0,16050301.0,60.0,1911-04-01,2022-11-29,113.6448,POINT (-119.3259923 38.23880787)
453,10291500,"BUCKEYE CK NR BRIDGEPORT, CA",43.8,9193.0,19.0,0.0,0.0,,,37.5,18.5,58.0,104.3,"Buckeye Ck Nr Bridgeport, CA",38.23880787,-119.3259923,6900.0,10.0,16050301.0,60.0,1911-04-01,2022-11-29,113.6448,POINT (-119.3259923 38.23880787)
454,10293000,"E WALKER RV NR BRIDGEPORT, CA",360.4,8249.0,13.3,2.4,0.2,,,23.5,31.9,150.0,442.8,"E Walker Rv Nr Bridgeport, CA",38.3276958,-119.2148759,6400.0,20.0,16050301.0,60.0,1921-10-01,2022-11-29,933.3531,POINT (-119.2148759 38.3276958)
455,10293000,"E WALKER RV NR BRIDGEPORT, CA",360.4,8249.0,13.3,2.4,0.2,,,23.5,31.9,150.0,442.8,"E Walker Rv Nr Bridgeport, CA",38.3276958,-119.2148759,6400.0,20.0,16050301.0,60.0,1921-10-01,2022-11-29,933.3531,POINT (-119.2148759 38.3276958)
456,10296000,"W WALKER RV BLW L WALKER RV NR COLEVILLE, CA",,,,,,,,,63.1,269.0,703.7,"W Walker Rv Blw L Walker Rv Nr Coleville, CA",38.3796366,-119.4501649,6591.39,1.0,16050302.0,60.0,1938-04-01,2022-11-29,467.4168,POINT (-119.4501649 38.3796366)
457,10296000,"W WALKER RV BLW L WALKER RV NR COLEVILLE, CA",180.5,8850.0,15.9,1.2,0.2,,,39.9,63.1,269.0,703.7,"W Walker Rv Blw L Walker Rv Nr Coleville, CA",38.3796366,-119.4501649,6591.39,1.0,16050302.0,60.0,1938-04-01,2022-11-29,467.4168,POINT (-119.4501649 38.3796366)
458,10296500,"W WALKER RV NR COLEVILLE, CA",244.1,8610.0,15.3,1.2,0.3,,,35.3,70.7,278.0,678.4,"W Walker Rv Nr Coleville, CA",38.51324495,-119.4498872,5520.0,20.0,16050302.0,60.0,1902-10-01,2022-11-29,632.1213,POINT (-119.4498872 38.51324495)
459,10296500,"W WALKER RV NR COLEVILLE, CA",244.1,8610.0,15.3,1.2,0.3,,,35.3,70.7,278.0,678.4,"W Walker Rv Nr Coleville, CA",38.51324495,-119.4498872,5520.0,20.0,16050302.0,60.0,1902-10-01,2022-11-29,632.1213,POINT (-119.4498872 38.51324495)
460,11532500,SMITH R NR CRESCENT CITY CA,,,,,,,,,1661.0,3673.0,6195.0,"Smith R Nr Crescent City, CA",41.7915026,-124.0761887,79.26,0.05,18010101.0,10.0,1965-10-01,1981-09-29,1577.962,POINT (-124.0761887 41.7915026)
461,11480390,MAD R AB RUTH RES NR FOREST GLEN CA,93.7,3705.0,56.3,2.7,0.1,,,65.2,54.7,220.0,471.3,"Mad R Ab Ruth Res Nr Forest Glen, CA",40.28431329,-123.3353034,,,18010102.0,60.0,1980-06-20,2022-11-29,242.5977,POINT (-123.3353034 40.28431329)
462,11481000,MAD R NR ARCATA CA,485.5,2623.0,55.1,3.0,0.2,,,71.5,409.5,1307.0,2832.0,"Mad R Nr Arcata, CA",40.9098497,-124.0606183,12.79,0.01,18010102.0,10.0,1961-10-12,1979-01-18,1257.414,POINT (-124.0606183 40.9098497)
463,11481200,LITTLE R NR TRINIDAD CA,40.7,1096.0,68.4,0.5,0.0,,,67.6,41.9,132.0,269.0,"Little R Nr Trinidad, CA",41.0098479,-124.0814555,17.62,0.01,18010102.0,60.0,1955-10-01,2022-11-29,105.4035,POINT (-124.0814555 41.0098479)
464,11481500,REDWOOD C NR BLUE LAKE CA,67.6,2935.0,51.3,0.9,0.0,,,91.6,70.3,210.0,438.5,"Redwood C Nr Blue Lake, CA",40.90596479,-123.815335,867.26,0.16,18010102.0,10.0,1973-10-01,1980-10-14,175.1499,POINT (-123.815335 40.90596479)
465,11482500,REDWOOD C A ORICK CA,277.3,1831.0,61.3,1.5,0.1,,,83.4,296.2,944.0,1836.0,"Redwood C A Orick, CA",41.2992896,-124.0511825,8.97,0.16,18010102.0,10.0,1965-10-01,1979-09-04,718.0398,POINT (-124.0511825 41.2992896)
466,11473900,MF EEL R NR DOS RIOS CA,745.2,3685.0,35.3,3.2,0.1,,,56.4,360.8,1451.0,3623.0,"Mf Eel R Nr Dos Rios, CA",39.70626687,-123.3252913,901.58,0.01,18010104.0,10.0,1966-10-01,1983-10-04,1925.013,POINT (-123.3252913 39.70626687)
467,11475000,EEL R A FORT SEWARD CA,2107.1,3025.0,37.7,3.4,0.1,,,57.9,925.2,4364.0,11180.0,"Eel R A Fort Seward, CA",40.2182,-123.63253,217.26,0.01,18010105.0,10.0,1960-11-10,1979-05-24,5456.924,POINT (-123.63253 40.2182)
468,11477000,EEL R A SCOTIA CA,3113.2,2577.0,43.1,3.7,0.2,,,61.5,1619.0,7410.0,18850.0,"Eel R A Scotia, CA",40.49152384,-124.0997699,35.5,0.01,18010105.0,10.0,1962-02-01,1982-06-30,8062.434,POINT (-124.0997699 40.49152384)
469,11478500,VAN DUZEN R NR BRIDGEVILLE CA,,,,,,,,,230.5,809.0,1670.0,"Van Duzen R Nr Bridgeville, CA",40.48041636,-123.890876,358.18,0.01,18010105.0,10.0,1960-12-03,1979-05-16,572.3766,POINT (-123.890876 40.48041636)
470,11475560,ELDER C NR BRANSCOMB CA,6.5,2792.0,62.9,0.2,0.0,,,99.9,5.58,24.0,50.3,"Elder C Nr Branscomb, CA",39.7295997,-123.6439073,1391.08,0.01,18010106.0,10.0,1967-10-01,2022-11-30,16.794,POINT (-123.6439073 39.7295997)
471,11475800,SF EEL R A LEGGETT CA,247.9,2053.0,50.8,5.1,0.2,,,81.2,163.1,732.0,2055.0,"Sf Eel R A Leggett, CA",39.8745957,-123.7205775,687.59,0.16,18010106.0,10.0,1965-10-01,1979-06-26,642.1077,POINT (-123.7205775 39.8745957)
472,11476500,SF EEL R NR MIRANDA CA,536.8,1726.0,52.4,5.1,0.3,,,75.9,343.7,1732.0,4673.0,"Sf Eel R Nr Miranda, CA",40.18181004,-123.7761426,217.57,0.01,18010106.0,10.0,1960-11-04,1983-09-29,1390.243,POINT (-123.7761426 40.18181004)
473,11476600,BULL C NR WEOTT CA,,,,,,,,,21.9,111.0,319.0,"Bull C Nr Weott, CA",40.351528,-124.0050423,269.36,0.01,18010106.0,10.0,1975-10-02,1979-08-29,71.8452,POINT (-124.0050423 40.351528)
474,11468900,MATTOLE R NR ETTERSBURG CA,70.9,1458.0,62.0,3.4,0.1,,,75.2,90.3,343.0,509.9,"Mattole R Nr Ettersburg, CA",40.139309,-123.991423,578.93,0.01,18010107.0,10.0,2001-06-22,2022-11-30,183.6774,POINT (-123.991423 40.139309)
475,11469000,MATTOLE R NR PETROLIA CA,245.5,1354.0,56.2,2.7,0.1,,,75.9,241.2,1186.0,2747.0,"Mattole R Nr Petrolia, CA",40.31319125,-124.283381,49.41,1.0,18010107.0,10.0,2000-10-05,2003-08-22,622.863,POINT (-124.283381 40.31319125)
476,11468000,NAVARRO R NR NAVARRO CA,303.3,1126.0,55.0,4.6,0.2,,,46.7,55.1,473.0,1495.0,"Navarro R Nr Navarro, CA",39.17045608,-123.668069,4.79,0.01,18010108.0,10.0,1965-10-01,1999-05-05,785.8926,POINT (-123.668069 39.17045608)
477,11468500,NOYO R NR FORT BRAGG CA,105.6,918.0,71.0,5.6,0.1,,,50.2,33.2,192.0,502.1,"Noyo R Nr Fort Bragg, CA",39.42822378,-123.7377917,11.73,0.01,18010108.0,10.0,1965-12-08,1979-02-14,273.5145,POINT (-123.7377917 39.42822378)
478,11467510,SF GUALALA R NR THE SEA RANCH CA,,,,,,,,,37.1,322.0,633.0,"Sf Gualala R Nr The Sea Ranch, CA",38.70907868,-123.4266753,40.0,0.01,18010109.0,60.0,1991-06-01,2022-11-29,418.3695,POINT (-123.4266753 38.70907868)
479,11467553,NF GUALALA R AB SF GUALALA R NR GUALALA CA,47.0,1029.0,62.2,3.4,0.1,,,53.2,16.1,121.0,225.0,"Nf Gualala R Ab Sf Gualala R Nr Gualala, CA",38.7899103,-123.5094535,20.0,20.0,18010109.0,10.0,2001-02-20,2001-10-02,,POINT (-123.5094535 38.7899103)
480,11461000,RUSSIAN R NR UKIAH CA,100.5,1468.0,30.0,7.9,1.0,,,46.6,19.7,164.0,482.0,"Russian R Nr Ukiah, CA",39.1954471,-123.1950048,602.25,0.16,18010110.0,10.0,1964-11-09,1967-09-28,259.6455,POINT (-123.1950048 39.1954471)
481,11461500,EF RUSSIAN R NR CALPELLA CA,92.2,1630.0,19.2,4.6,0.3,,,44.9,61.9,277.0,611.6,"Ef Russian R Nr Calpella, CA",39.24655605,-123.1302806,787.87,0.01,18010110.0,10.0,2019-10-31,2022-11-30,238.6782,POINT (-123.1302806 39.24655605)
482,11462080,RUSSIAN R NR TALMAGE CA,286.5,1537.0,25.5,9.0,1.5,,,45.6,151.9,387.0,687.3,"Russian R Nr Talmage, CA",39.1129496,-123.1830602,560.0,20.0,18010110.0,60.0,2009-08-06,2022-11-29,,POINT (-123.1830602 39.1129496)
483,11462500,RUSSIAN R NR HOPLAND CA,362.5,1526.0,25.2,8.4,1.3,,,45.5,144.6,630.0,1705.0,"Russian R Nr Hopland, CA",39.02656314,-123.1305588,497.61,0.01,18010110.0,10.0,1965-09-01,2022-11-30,938.709,POINT (-123.1305588 39.02656314)
484,11463000,RUSSIAN R NR CLOVERDALE CA,502.9,1530.0,24.7,7.2,1.0,,,45.5,184.9,870.0,2372.0,"Russian R Nr Cloverdale, CA",38.8793475,-123.0536124,350.0,20.0,18010110.0,10.0,1964-11-17,2022-11-02,1302.663,POINT (-123.0536124 38.8793475)
485,11463170,BIG SULPHUR C A G RESORT NR CLOVERDALE CA,13.1,2836.0,41.0,1.3,0.1,,,57.9,4.88,43.0,103.6,"Big Sulphur C A G Resort Nr Cloverdale, CA",38.79768326,-122.8024929,,,18010110.0,60.0,1980-10-01,2022-11-29,33.8634,POINT (-122.8024929 38.79768326)
486,11463200,BIG SULPHUR C NR CLOVERDALE CA,85.3,2095.0,30.1,2.6,0.2,,,51.0,31.2,154.0,334.0,"Big Sulphur C Nr Cloverdale, CA",38.8260167,-122.9969442,,,18010110.0,10.0,1970-10-14,1972-10-05,220.8726,POINT (-122.9969442 38.8260167)
487,11463682,RUSSIAN R A JIMTOWN CA,685.6,1488.0,25.3,7.3,1.2,,,46.0,227.3,938.0,1777.0,"Russian R A Jimtown, CA",38.65824247,-122.8294376,143.69,0.2,18010110.0,10.0,2009-07-22,2022-11-30,,POINT (-122.8294376 38.65824247)
488,11463900,MAACAMA C NR KELLOGG CA,44.0,1337.0,29.8,2.2,0.1,,,45.0,7.96,68.0,151.8,"Maacama C Nr Kellogg, CA",38.6410198,-122.7638792,200.0,20.0,18010110.0,60.0,1961-01-01,2022-11-29,114.1371,POINT (-122.7638792 38.6410198)
489,11464000,RUSSIAN R NR HEALDSBURG CA,794.0,1414.0,25.9,6.9,1.1,,,45.5,244.9,1315.0,3710.0,"Russian R Nr Healdsburg, CA",38.61324316,-122.8363818,77.01,0.01,18010110.0,10.0,1965-11-06,2002-09-30,2056.271,POINT (-122.8363818 38.61324316)
